{
  "version": 0.6,
  "generator": "Overpass API 0.7.58.3 b33c3320",
  "osm3s": {
    "timestamp_osm_base": "2022-07-05T15:10:09Z",
    "timestamp_areas_base": "2022-07-05T11:35:12Z",
    "copyright": "The data included in this document is from www.openstreetmap.org. The data is made available under ODbL."
  },
  "elements": [
    {
      "type": "node",
      "id": 269658338,
      "lat": 23.7887749,
      "lon": 90.4163975,
      "tags": {
        "created_by": "Potlatch 0.10f",
        "name": "Agora",
        "name:en": "Agora Gulshan",
        "shop": "supermarket"
      }
    },
    {
      "type": "node",
      "id": 269661614,
      "lat": 23.7931353,
      "lon": 90.4056248,
      "tags": {
        "addr:city": "Banani, Dhaka",
        "addr:postcode": "1213",
        "addr:street": "Road 17",
        "fixme": "Survey opening and closing hours, was \"10\".",
        "name": "স্বপ্ন",
        "name:en": "Shwapno",
        "operator": "private",
        "shop": "supermarket"
      }
    },
    {
      "type": "node",
      "id": 413498000,
      "lat": 23.7890486,
      "lon": 90.4187721,
      "tags": {
        "name": "Eastern Diplomatic Warehouse",
        "shop": "alcohol"
      }
    },
    {
      "type": "node",
      "id": 413498002,
      "lat": 23.783419,
      "lon": 90.4154494,
      "tags": {
        "name": "Dacca Warehouse Ltd",
        "shop": "alcohol"
      }
    },
    {
      "type": "node",
      "id": 413498003,
      "lat": 23.7772444,
      "lon": 90.4164022,
      "tags": {
        "name": "STL Diplomatic Warehouse",
        "shop": "alcohol"
      }
    },
    {
      "type": "node",
      "id": 414035705,
      "lat": 23.7941633,
      "lon": 90.4116249,
      "tags": {
        "addr:housenumber": "NWJ-2",
        "addr:postcode": "1212",
        "addr:street": "Kamal Ataturk",
        "email": "hatil-gulshan@hotmail.com",
        "name": "UNKNOWN",
        "name:en": "HATIL Furniture",
        "opening_hours": "Mo-Sa 10:00-20:30",
        "operator": "HI-TECH Furniture",
        "phone": "+8801730731270",
        "shop": "supermarket",
        "website": "http://hatilbd.com"
      }
    },
    {
      "type": "node",
      "id": 513000451,
      "lat": 23.703393,
      "lon": 90.4186944,
      "tags": {
        "name": "Sutrapur Bazar",
        "shop": "supermarket"
      }
    },
    {
      "type": "node",
      "id": 621448431,
      "lat": 23.8504897,
      "lon": 90.2590377,
      "tags": {
        "addr:postcode": "1340",
        "name": "Savar Super Markt",
        "shop": "supermarket"
      }
    },
    {
      "type": "node",
      "id": 621450185,
      "lat": 23.8490963,
      "lon": 90.2577288,
      "tags": {
        "addr:postcode": "1340",
        "addr:street": "Dhaka Aricha Highway",
        "name": "Razzak Plaza",
        "shop": "supermarket"
      }
    },
    {
      "type": "node",
      "id": 830003380,
      "lat": 23.7419576,
      "lon": 90.4118164,
      "tags": {
        "addr:city": "Dhaka",
        "addr:postcode": "1217",
        "addr:street": "Siddeshwari Road",
        "level": "2",
        "name": "Agora",
        "shop": "convenience"
      }
    },
    {
      "type": "node",
      "id": 830062002,
      "lat": 23.7398598,
      "lon": 90.4103114,
      "tags": {
        "name": "Karnafuli Garden City",
        "shop": "supermarket"
      }
    },
    {
      "type": "node",
      "id": 1255073243,
      "lat": 23.775836,
      "lon": 90.3922408,
      "tags": {
        "name": "Anando Bakery",
        "shop": "bakery"
      }
    },
    {
      "type": "node",
      "id": 1255073249,
      "lat": 23.7761364,
      "lon": 90.3924486,
      "tags": {
        "shop": "music"
      }
    },
    {
      "type": "node",
      "id": 1255073254,
      "lat": 23.7761665,
      "lon": 90.3926361,
      "tags": {
        "name": "TopClean",
        "shop": "laundry"
      }
    },
    {
      "type": "node",
      "id": 1255073255,
      "lat": 23.7761448,
      "lon": 90.3925394,
      "tags": {
        "shop": "gift"
      }
    },
    {
      "type": "node",
      "id": 1255073257,
      "lat": 23.7759559,
      "lon": 90.3927659,
      "tags": {
        "shop": "confectionery"
      }
    },
    {
      "type": "node",
      "id": 1255073258,
      "lat": 23.7761063,
      "lon": 90.3923146,
      "tags": {
        "shop": "supermarket"
      }
    },
    {
      "type": "node",
      "id": 1255160715,
      "lat": 23.750842,
      "lon": 90.3908401,
      "tags": {
        "shop": "music"
      }
    },
    {
      "type": "node",
      "id": 1255160737,
      "lat": 23.7627574,
      "lon": 90.3893173,
      "tags": {
        "shop": "car"
      }
    },
    {
      "type": "node",
      "id": 1255160740,
      "lat": 23.7721787,
      "lon": 90.389446,
      "tags": {
        "name": "The Bookworm",
        "shop": "books"
      }
    },
    {
      "type": "node",
      "id": 1255160745,
      "lat": 23.7624444,
      "lon": 90.3889459,
      "tags": {
        "name": "Ngen Mobile",
        "shop": "convenience"
      }
    },
    {
      "type": "node",
      "id": 1255160763,
      "lat": 23.7632062,
      "lon": 90.3888296,
      "tags": {
        "name": "Coopers",
        "shop": "bakery"
      }
    },
    {
      "type": "node",
      "id": 1255160774,
      "lat": 23.7509634,
      "lon": 90.3908574,
      "tags": {
        "shop": "clothes"
      }
    },
    {
      "type": "node",
      "id": 1255160781,
      "lat": 23.7507744,
      "lon": 90.3908252,
      "tags": {
        "shop": "jewelry"
      }
    },
    {
      "type": "node",
      "id": 1255160782,
      "lat": 23.7510339,
      "lon": 90.390511,
      "tags": {
        "shop": "hifi"
      }
    },
    {
      "type": "node",
      "id": 1255160784,
      "lat": 23.775821,
      "lon": 90.3921497,
      "tags": {
        "shop": "butcher"
      }
    },
    {
      "type": "node",
      "id": 1255160787,
      "lat": 23.7759064,
      "lon": 90.3926643,
      "tags": {
        "shop": "clothes"
      }
    },
    {
      "type": "node",
      "id": 1271733443,
      "lat": 23.7072763,
      "lon": 90.414791,
      "tags": {
        "shop": "hairdresser"
      }
    },
    {
      "type": "node",
      "id": 1271733448,
      "lat": 23.7071339,
      "lon": 90.4147752,
      "tags": {
        "shop": "gift"
      }
    },
    {
      "type": "node",
      "id": 1448612522,
      "lat": 23.7418511,
      "lon": 90.4086672,
      "tags": {
        "name": "Ananna Sharee House",
        "shop": "yes"
      }
    },
    {
      "type": "node",
      "id": 1448612524,
      "lat": 23.741753,
      "lon": 90.4095564,
      "tags": {
        "name": "Mahua Puspalay",
        "shop": "books"
      }
    },
    {
      "type": "node",
      "id": 1448612525,
      "lat": 23.7418464,
      "lon": 90.408641,
      "tags": {
        "name": "Priodorshini Sharee House",
        "shop": "yes"
      }
    },
    {
      "type": "node",
      "id": 1448612526,
      "lat": 23.7418531,
      "lon": 90.4086911,
      "tags": {
        "name": "Ramani Sharee House",
        "shop": "yes"
      }
    },
    {
      "type": "node",
      "id": 1448612527,
      "lat": 23.7417498,
      "lon": 90.4097072,
      "tags": {
        "name": "Sagar Publishers",
        "shop": "books"
      }
    },
    {
      "type": "node",
      "id": 1448612528,
      "lat": 23.741856,
      "lon": 90.40871,
      "tags": {
        "name": "Sajani Sharee House",
        "shop": "yes"
      }
    },
    {
      "type": "node",
      "id": 1448612529,
      "lat": 23.7416533,
      "lon": 90.4085202,
      "tags": {
        "name": "Tangail Sharee Kutir",
        "shop": "yes"
      }
    },
    {
      "type": "node",
      "id": 1448834085,
      "lat": 23.7416293,
      "lon": 90.4100165,
      "tags": {
        "addr:city": "Dhaka",
        "addr:housenumber": "9",
        "addr:postcode": "1217",
        "addr:street": "নিউ বেইলি রোড",
        "name": "Baily Star",
        "shop": "supermarket"
      }
    },
    {
      "type": "node",
      "id": 1448834091,
      "lat": 23.7416065,
      "lon": 90.4113573,
      "tags": {
        "name": "Gallery Apex",
        "shop": "shoes"
      }
    },
    {
      "type": "node",
      "id": 1448834098,
      "lat": 23.7416489,
      "lon": 90.4084658,
      "tags": {
        "name": "M-Craft",
        "shop": "yes"
      }
    },
    {
      "type": "node",
      "id": 1473907418,
      "lat": 23.7936291,
      "lon": 90.4156018,
      "tags": {
        "name": "Dhali Superstore",
        "shop": "convenience",
        "source": "Survey"
      }
    },
    {
      "type": "node",
      "id": 1496127058,
      "lat": 23.8682786,
      "lon": 90.4015737,
      "tags": {
        "shop": "supermarket"
      }
    },
    {
      "type": "node",
      "id": 1496129927,
      "lat": 23.8747833,
      "lon": 90.4001896,
      "tags": {
        "shop": "gift"
      }
    },
    {
      "type": "node",
      "id": 1735385761,
      "lat": 23.7398474,
      "lon": 90.3784994,
      "tags": {
        "shop": "convenience"
      }
    },
    {
      "type": "node",
      "id": 1754690514,
      "lat": 23.5485497,
      "lon": 90.534468,
      "tags": {
        "shop": "hairdresser"
      }
    },
    {
      "type": "node",
      "id": 1787155370,
      "lat": 23.7441328,
      "lon": 90.3732614,
      "tags": {
        "addr:city": "Dhanmondi, Dhaka",
        "addr:street": "Road 7A",
        "name": "Almas and others",
        "shop": "supermarket"
      }
    },
    {
      "type": "node",
      "id": 1829584580,
      "lat": 23.7408129,
      "lon": 90.3782361,
      "tags": {
        "shop": "convenience"
      }
    },
    {
      "type": "node",
      "id": 1829584582,
      "lat": 23.7406071,
      "lon": 90.3782696,
      "tags": {
        "name": "Shihab Departmental Store",
        "shop": "convenience"
      }
    },
    {
      "type": "node",
      "id": 1936306166,
      "lat": 23.7441958,
      "lon": 90.4148354,
      "tags": {
        "addr:postcode": "1217",
        "addr:street": "Shantibagh Rd",
        "name": "স্বপ্ন",
        "name:bn": "স্বপ্ন",
        "name:en": "Shopno",
        "opening_hours": "08:00-22:00",
        "shop": "supermarket",
        "wheelchair": "no"
      }
    },
    {
      "type": "node",
      "id": 1936640000,
      "lat": 23.7415852,
      "lon": 90.4116205,
      "tags": {
        "name": "Hok Bekary",
        "shop": "bakery"
      }
    },
    {
      "type": "node",
      "id": 1936667243,
      "lat": 23.7419205,
      "lon": 90.4117864,
      "tags": {
        "level": "2",
        "name": "BATA",
        "shop": "shoes"
      }
    },
    {
      "type": "node",
      "id": 2036039191,
      "lat": 23.7096042,
      "lon": 90.4398453,
      "tags": {
        "addr:housenumber": "01678143505",
        "addr:street": "jatrabari,dhaka",
        "name": "Md nasir uddin",
        "shop": "farm"
      }
    },
    {
      "type": "node",
      "id": 2305804517,
      "lat": 24.745597,
      "lon": 89.936509,
      "tags": {
        "shop": "kiosk"
      }
    },
    {
      "type": "node",
      "id": 2305808025,
      "lat": 24.718641,
      "lon": 89.946632,
      "tags": {
        "shop": "kiosk"
      }
    },
    {
      "type": "node",
      "id": 2305809717,
      "lat": 24.700515,
      "lon": 89.951473,
      "tags": {
        "shop": "kiosk"
      }
    },
    {
      "type": "node",
      "id": 2305811655,
      "lat": 24.676714,
      "lon": 89.951922,
      "tags": {
        "shop": "kiosk"
      }
    },
    {
      "type": "node",
      "id": 2305811730,
      "lat": 24.6684,
      "lon": 89.959151,
      "tags": {
        "shop": "kiosk"
      }
    },
    {
      "type": "node",
      "id": 2305811731,
      "lat": 24.668132,
      "lon": 89.959275,
      "tags": {
        "shop": "kiosk"
      }
    },
    {
      "type": "node",
      "id": 2305812213,
      "lat": 24.636037,
      "lon": 89.973011,
      "tags": {
        "shop": "kiosk"
      }
    },
    {
      "type": "node",
      "id": 2305812342,
      "lat": 24.632811,
      "lon": 89.974609,
      "tags": {
        "shop": "kiosk"
      }
    },
    {
      "type": "node",
      "id": 2305812453,
      "lat": 24.627459,
      "lon": 89.979606,
      "tags": {
        "shop": "kiosk"
      }
    },
    {
      "type": "node",
      "id": 2305812561,
      "lat": 24.622143,
      "lon": 89.989972,
      "tags": {
        "shop": "kiosk"
      }
    },
    {
      "type": "node",
      "id": 2305814937,
      "lat": 24.554558,
      "lon": 89.996312,
      "tags": {
        "shop": "kiosk"
      }
    },
    {
      "type": "node",
      "id": 2305816284,
      "lat": 24.544215,
      "lon": 89.987152,
      "tags": {
        "shop": "kiosk"
      }
    },
    {
      "type": "node",
      "id": 2305816853,
      "lat": 24.535495,
      "lon": 89.985092,
      "tags": {
        "shop": "kiosk"
      }
    },
    {
      "type": "node",
      "id": 2305817286,
      "lat": 24.513716,
      "lon": 89.97797,
      "tags": {
        "shop": "kiosk"
      }
    },
    {
      "type": "node",
      "id": 2305817479,
      "lat": 24.505161,
      "lon": 89.977325,
      "tags": {
        "shop": "kiosk"
      }
    },
    {
      "type": "node",
      "id": 2305818537,
      "lat": 24.485691,
      "lon": 89.974064,
      "tags": {
        "shop": "kiosk"
      }
    },
    {
      "type": "node",
      "id": 2305821896,
      "lat": 24.387836,
      "lon": 89.993848,
      "tags": {
        "shop": "organic"
      }
    },
    {
      "type": "node",
      "id": 2305825449,
      "lat": 24.353341,
      "lon": 89.938592,
      "tags": {
        "shop": "kiosk"
      }
    },
    {
      "type": "node",
      "id": 2305826194,
      "lat": 24.345833,
      "lon": 89.926801,
      "tags": {
        "shop": "kiosk"
      }
    },
    {
      "type": "node",
      "id": 2305826519,
      "lat": 24.340715,
      "lon": 89.924826,
      "tags": {
        "shop": "kiosk"
      }
    },
    {
      "type": "node",
      "id": 2305844162,
      "lat": 24.2755118,
      "lon": 89.9318959,
      "tags": {
        "bridge": "yes",
        "name": "Kandila Bazar কান্দিলা বাজার",
        "shop": "yes"
      }
    },
    {
      "type": "node",
      "id": 2305860984,
      "lat": 24.117923,
      "lon": 90.06542,
      "tags": {
        "shop": "kiosk"
      }
    },
    {
      "type": "node",
      "id": 2305875258,
      "lat": 24.105882,
      "lon": 90.093562,
      "tags": {
        "shop": "car_repair"
      }
    },
    {
      "type": "node",
      "id": 2305975325,
      "lat": 24.095678,
      "lon": 90.152474,
      "tags": {
        "shop": "kiosk"
      }
    },
    {
      "type": "node",
      "id": 2305975852,
      "lat": 24.097088,
      "lon": 90.161247,
      "tags": {
        "shop": "kiosk"
      }
    },
    {
      "type": "node",
      "id": 2305985730,
      "lat": 24.055442,
      "lon": 90.228536,
      "tags": {
        "shop": "kiosk"
      }
    },
    {
      "type": "node",
      "id": 2306009957,
      "lat": 24.034214,
      "lon": 90.261871,
      "tags": {
        "shop": "kiosk"
      }
    },
    {
      "type": "node",
      "id": 2306022229,
      "lat": 24.027631,
      "lon": 90.273003,
      "tags": {
        "shop": "organic"
      }
    },
    {
      "type": "node",
      "id": 2306022890,
      "lat": 24.026762,
      "lon": 90.275969,
      "tags": {
        "shop": "organic"
      }
    },
    {
      "type": "node",
      "id": 2306074795,
      "lat": 23.961506,
      "lon": 90.379848,
      "tags": {
        "shop": "kiosk"
      }
    },
    {
      "type": "node",
      "id": 2306075522,
      "lat": 23.954517,
      "lon": 90.3816164,
      "tags": {
        "organic": "yes",
        "shop": "supermarket"
      }
    },
    {
      "type": "node",
      "id": 2306076346,
      "lat": 23.9499182,
      "lon": 90.3815635,
      "tags": {
        "shop": "kiosk"
      }
    },
    {
      "type": "node",
      "id": 2306076699,
      "lat": 23.945431,
      "lon": 90.382001,
      "tags": {
        "shop": "kiosk"
      }
    },
    {
      "type": "node",
      "id": 2306077180,
      "lat": 23.944914,
      "lon": 90.382011,
      "tags": {
        "organic": "yes",
        "shop": "supermarket"
      }
    },
    {
      "type": "node",
      "id": 2306080585,
      "lat": 23.928627,
      "lon": 90.389088,
      "tags": {
        "shop": "kiosk"
      }
    },
    {
      "type": "node",
      "id": 2306194119,
      "lat": 23.786469,
      "lon": 90.399912,
      "tags": {
        "shop": "kiosk"
      }
    },
    {
      "type": "node",
      "id": 2306206491,
      "lat": 23.7784786,
      "lon": 90.3984692,
      "tags": {
        "organic": "only",
        "shop": "supermarket"
      }
    },
    {
      "type": "node",
      "id": 2306208403,
      "lat": 23.776729,
      "lon": 90.398546,
      "tags": {
        "shop": "organic"
      }
    },
    {
      "type": "node",
      "id": 2306230977,
      "lat": 23.771708,
      "lon": 90.400839,
      "tags": {
        "shop": "mobile_phone"
      }
    },
    {
      "type": "node",
      "id": 2306233054,
      "lat": 23.768982,
      "lon": 90.400614,
      "tags": {
        "name": "HONDA",
        "shop": "car"
      }
    },
    {
      "type": "node",
      "id": 2306301994,
      "lat": 23.736984,
      "lon": 90.410668,
      "tags": {
        "shop": "electronics"
      }
    },
    {
      "type": "node",
      "id": 2306302378,
      "lat": 23.736689,
      "lon": 90.412127,
      "tags": {
        "shop": "car_parts"
      }
    },
    {
      "type": "node",
      "id": 2306302836,
      "lat": 23.735676,
      "lon": 90.415358,
      "tags": {
        "name": "city heart",
        "shop": "department_store"
      }
    },
    {
      "type": "node",
      "id": 2306304670,
      "lat": 23.735612,
      "lon": 90.415668,
      "tags": {
        "name": "polytone",
        "shop": "electronics"
      }
    },
    {
      "type": "node",
      "id": 2306305146,
      "lat": 23.73552,
      "lon": 90.415792,
      "tags": {
        "name": "Bata",
        "shop": "shoes"
      }
    },
    {
      "type": "node",
      "id": 2306369513,
      "lat": 23.738933,
      "lon": 90.390832,
      "tags": {
        "shop": "mobile_phone"
      }
    },
    {
      "type": "node",
      "id": 2306370178,
      "lat": 23.7392032,
      "lon": 90.3877084,
      "tags": {
        "addr:city": "Dhaka city",
        "addr:postcode": "1205",
        "addr:street": "Science Laboratory Rd",
        "name": "Bata Bazaar",
        "opening_hours": "10:00-20:00",
        "shop": "shoes"
      }
    },
    {
      "type": "node",
      "id": 2306371206,
      "lat": 23.739122,
      "lon": 90.386391,
      "tags": {
        "name": "zeils",
        "shop": "shoes"
      }
    },
    {
      "type": "node",
      "id": 2306372814,
      "lat": 23.739363,
      "lon": 90.383132,
      "tags": {
        "shop": "kiosk"
      }
    },
    {
      "type": "node",
      "id": 2306375064,
      "lat": 23.7387934,
      "lon": 90.3742651,
      "tags": {
        "name": "Walton Plaza",
        "shop": "electronics"
      }
    },
    {
      "type": "node",
      "id": 2306375701,
      "lat": 23.737696,
      "lon": 90.37118,
      "tags": {
        "addr:street": "Jigatola Main Road",
        "shop": "kiosk"
      }
    },
    {
      "type": "node",
      "id": 2306376275,
      "lat": 23.737181,
      "lon": 90.369126,
      "tags": {
        "shop": "kiosk"
      }
    },
    {
      "type": "node",
      "id": 2306411110,
      "lat": 23.771743,
      "lon": 90.389499,
      "tags": {
        "shop": "kiosk"
      }
    },
    {
      "type": "node",
      "id": 2320117968,
      "lat": 23.759769,
      "lon": 90.3659838,
      "tags": {
        "shop": "clothes"
      }
    },
    {
      "type": "node",
      "id": 2320117984,
      "lat": 23.7601839,
      "lon": 90.3668073,
      "tags": {
        "shop": "butcher"
      }
    },
    {
      "type": "node",
      "id": 2320117992,
      "lat": 23.760147,
      "lon": 90.3666812,
      "tags": {
        "addr:city": "Mohammadpur, Dhaka",
        "addr:postcode": "1207",
        "addr:street": "Asad Avenue",
        "shop": "seafood"
      }
    },
    {
      "type": "node",
      "id": 2320118057,
      "lat": 23.7602158,
      "lon": 90.3669147,
      "tags": {
        "shop": "department_store"
      }
    },
    {
      "type": "node",
      "id": 2320120418,
      "lat": 23.7531652,
      "lon": 90.3696585,
      "tags": {
        "name": "Meena Bazar",
        "shop": "supermarket"
      }
    },
    {
      "type": "node",
      "id": 2331562402,
      "lat": 23.8245601,
      "lon": 90.3645025,
      "tags": {
        "addr:postcode": "1216",
        "name": "Cantina, Fayon, Me&Mom, Dabber",
        "shop": "clothes"
      }
    },
    {
      "type": "node",
      "id": 2343339619,
      "lat": 23.7938942,
      "lon": 90.4154561,
      "tags": {
        "name": "City Corporation Market Gulshan 2",
        "shop": "supermarket"
      }
    },
    {
      "type": "node",
      "id": 2343339620,
      "lat": 23.7940951,
      "lon": 90.4020266,
      "tags": {
        "name": "BD-UAE Friendship Market",
        "shop": "supermarket"
      }
    },
    {
      "type": "node",
      "id": 2403845158,
      "lat": 23.7960525,
      "lon": 90.4150106,
      "tags": {
        "name": "Unimart",
        "name:en": "Unimart",
        "shop": "supermarket"
      }
    },
    {
      "type": "node",
      "id": 2403845159,
      "lat": 23.7986248,
      "lon": 90.4123361,
      "tags": {
        "name": "La Femme",
        "shop": "hairdresser"
      }
    },
    {
      "type": "node",
      "id": 2419473526,
      "lat": 23.7884966,
      "lon": 90.4197557,
      "tags": {
        "shop": "0003"
      }
    },
    {
      "type": "node",
      "id": 2419812910,
      "lat": 24.2501352,
      "lon": 89.9138816,
      "tags": {
        "name": "Tangail New Market",
        "shop": "mall"
      }
    },
    {
      "type": "node",
      "id": 2426540471,
      "lat": 23.6014027,
      "lon": 89.8335789,
      "tags": {
        "name": "Faridpur New Market",
        "shop": "mall"
      }
    },
    {
      "type": "node",
      "id": 2426642943,
      "lat": 23.7798731,
      "lon": 90.4168969,
      "tags": {
        "name": "Jabbar Tower",
        "name:en": "Zabbra tower",
        "shop": "supermarket"
      }
    },
    {
      "type": "node",
      "id": 2518338230,
      "lat": 23.7163616,
      "lon": 90.3969691,
      "tags": {
        "addr:city": "Dhaka",
        "addr:housenumber": "1/3",
        "addr:postcode": "1211",
        "addr:street": "Begum Bazar Road",
        "description": "imitation Jewelry Shop",
        "email": "riponstore@gmail.com",
        "fax": "+880257313892",
        "name": "Ripon Store",
        "operator": "Md Nurul Amin",
        "shop": "supermarket",
        "source": "Open Cities Dhaka Survey"
      }
    },
    {
      "type": "node",
      "id": 2682105235,
      "lat": 23.7417021,
      "lon": 90.3740378,
      "tags": {
        "name": "DHL",
        "shop": "confectionery"
      }
    },
    {
      "type": "node",
      "id": 2683365285,
      "lat": 23.738908,
      "lon": 90.3753572,
      "tags": {
        "name": "Symphony customer care",
        "shop": "yes"
      }
    },
    {
      "type": "node",
      "id": 2683389321,
      "lat": 23.7385799,
      "lon": 90.3838071,
      "tags": {
        "name": "Longla Panjabi",
        "shop": "clothes"
      }
    },
    {
      "type": "node",
      "id": 2688749121,
      "lat": 23.7440271,
      "lon": 90.4260318,
      "tags": {
        "addr:housename": "Khilgaon Rail Crossing",
        "name": "খিলগাও কাচা বাজার",
        "name:bn": "খিলগাও কাচা বাজার",
        "name:en": "Khilgaon Kacha Bazar",
        "shop": "supermarket"
      }
    },
    {
      "type": "node",
      "id": 2697450368,
      "lat": 23.871116,
      "lon": 90.4011714,
      "tags": {
        "addr:city": "Dhaka",
        "addr:housenumber": "House 1",
        "addr:postcode": "1230",
        "addr:street": "Road 13, Sector 6, Uttara Model Town",
        "name": "Premium Sweets by Central",
        "opening_hours": "10:00-21:00",
        "shop": "confectionery"
      }
    },
    {
      "type": "node",
      "id": 2708443802,
      "lat": 23.8681929,
      "lon": 90.4028654,
      "tags": {
        "addr:city": "Dhaka",
        "addr:housenumber": "Plot 2",
        "addr:postcode": "1230",
        "addr:street": "Road 13/A, Shahjalal Avenue, Sector 6, Uttara",
        "ele": "2",
        "name": "Meena Bazar Uttara-6",
        "phone": "+8801841700733",
        "shop": "supermarket",
        "source": "http://www.meenabazar.com.bd/index.php?route=information/information&information_id=48",
        "toilets:wheelchair": "no",
        "website": "http://www.meenabazar.com.bd/index.php?route=information/information&information_id=48"
      }
    },
    {
      "type": "node",
      "id": 2715291252,
      "lat": 23.7985789,
      "lon": 90.3529064,
      "tags": {
        "addr:housename": "Mukta Bangla Shopping Complex",
        "addr:street": "Mazar Road",
        "name": "Popy Library",
        "shop": "books"
      }
    },
    {
      "type": "node",
      "id": 2791871568,
      "lat": 23.8686669,
      "lon": 90.4041599,
      "tags": {
        "addr:city": "Dhaka",
        "addr:housenumber": "House 9",
        "addr:postcode": "1230",
        "addr:street": "Road 13D, Sector 6, Uttara",
        "name": "Angel Dry Cleaner",
        "phone": "+88028957754",
        "shop": "dry_cleaning"
      }
    },
    {
      "type": "node",
      "id": 2799215439,
      "lat": 24.248693,
      "lon": 89.9136664,
      "tags": {
        "name": "CDC Shopping Complex",
        "shop": "variety_store"
      }
    },
    {
      "type": "node",
      "id": 2869273094,
      "lat": 23.8129482,
      "lon": 90.3920335,
      "tags": {
        "name": "আল-আমিন স্টোর",
        "name:en": "Al-Amin Store",
        "opening_hours": "08:00-22:30",
        "phone": "+8801734038365",
        "phone:2": "+8801683377434",
        "shop": "convenience"
      }
    },
    {
      "type": "node",
      "id": 2869273098,
      "lat": 23.8120651,
      "lon": 90.3932569,
      "tags": {
        "name": "Ros Kodom Sweets",
        "shop": "bakery"
      }
    },
    {
      "type": "node",
      "id": 2896511110,
      "lat": 24.0768144,
      "lon": 90.210648,
      "tags": {
        "name": "Walton Plaza",
        "shop": "electronics"
      }
    },
    {
      "type": "node",
      "id": 2965085110,
      "lat": 23.7503141,
      "lon": 90.3935237,
      "tags": {
        "name": "Travel Agent",
        "shop": "ticket"
      }
    },
    {
      "type": "node",
      "id": 2989198824,
      "lat": 23.7568565,
      "lon": 90.3903932,
      "tags": {
        "name": "Gallerie Apex",
        "shop": "convenience"
      }
    },
    {
      "type": "node",
      "id": 2989226133,
      "lat": 23.7557882,
      "lon": 90.3911922,
      "tags": {
        "name": "Leatherex Footwear",
        "shop": "convenience"
      }
    },
    {
      "type": "node",
      "id": 2989934031,
      "lat": 23.756728,
      "lon": 90.3893121,
      "tags": {
        "name": "Mnuworld",
        "shop": "convenience"
      }
    },
    {
      "type": "node",
      "id": 2989957677,
      "lat": 23.7565293,
      "lon": 90.3895641,
      "tags": {
        "name": "Fasion Optics Ltd",
        "shop": "convenience"
      }
    },
    {
      "type": "node",
      "id": 2991934785,
      "lat": 23.7247925,
      "lon": 90.4117342,
      "tags": {
        "name": "BD Tour",
        "shop": "travel_agency"
      }
    },
    {
      "type": "node",
      "id": 2998799901,
      "lat": 23.7366546,
      "lon": 90.3914924,
      "tags": {
        "shop": "tyres"
      }
    },
    {
      "type": "node",
      "id": 3003143586,
      "lat": 23.7501446,
      "lon": 90.3936351,
      "tags": {
        "name": "একুশে টেলিভিশন ইটিভি",
        "name:bn": "একুশে টেলিভিশন ইটিভি",
        "name:en": "Ekushe Television ETV",
        "shop": "electronics"
      }
    },
    {
      "type": "node",
      "id": 3003150853,
      "lat": 23.7540507,
      "lon": 90.3920929,
      "tags": {
        "name": "ATN NEWS",
        "shop": "electronics"
      }
    },
    {
      "type": "node",
      "id": 3003441828,
      "lat": 23.7531071,
      "lon": 90.3926757,
      "tags": {
        "name": "ATN Bangla",
        "shop": "electronics"
      }
    },
    {
      "type": "node",
      "id": 3003660469,
      "lat": 23.7461492,
      "lon": 90.3949045,
      "tags": {
        "name": "SINGER Bangladesh",
        "shop": "electronics"
      }
    },
    {
      "type": "node",
      "id": 3003744026,
      "lat": 23.7486453,
      "lon": 90.3926263,
      "tags": {
        "name": "Bangla vision",
        "shop": "electronics"
      }
    },
    {
      "type": "node",
      "id": 3006495792,
      "lat": 23.7372025,
      "lon": 90.3959275,
      "tags": {
        "name": "শাহবাগ ফুলের মার্কেট",
        "name:bn": "শাহবাগ ফুলের মার্কেট",
        "name:en": "Shahbag Flower Market",
        "shop": "florist"
      }
    },
    {
      "type": "node",
      "id": 3009458159,
      "lat": 23.7552132,
      "lon": 90.3910545,
      "tags": {
        "name": "Mughol Sweets",
        "shop": "bakery"
      }
    },
    {
      "type": "node",
      "id": 3009458416,
      "lat": 23.7756145,
      "lon": 90.3649796,
      "tags": {
        "name": "Gallerie Apex",
        "shop": "shoes"
      }
    },
    {
      "type": "node",
      "id": 3011561501,
      "lat": 23.7543789,
      "lon": 90.3912035,
      "tags": {
        "name": "BRB Travels Limited",
        "shop": "travel_agency"
      }
    },
    {
      "type": "node",
      "id": 3011566815,
      "lat": 23.7526937,
      "lon": 90.3926071,
      "tags": {
        "name": "SAMSUNG Smartphone Cafe",
        "shop": "mobile_phone"
      }
    },
    {
      "type": "node",
      "id": 3013514069,
      "lat": 23.730467,
      "lon": 90.4103514,
      "tags": {
        "name": "Panaroma",
        "shop": "photo"
      }
    },
    {
      "type": "node",
      "id": 3013518211,
      "lat": 23.7304307,
      "lon": 90.4103552,
      "tags": {
        "name": "Macs Travels",
        "shop": "travel_agency"
      }
    },
    {
      "type": "node",
      "id": 3013518547,
      "lat": 23.7303835,
      "lon": 90.4103873,
      "tags": {
        "name": "Nokia Showroom",
        "shop": "mobile_phone"
      }
    },
    {
      "type": "node",
      "id": 3013520929,
      "lat": 23.7304919,
      "lon": 90.4106556,
      "tags": {
        "name": "K Ahmed & Company",
        "name:en": "Arms Store",
        "shop": "hardware"
      }
    },
    {
      "type": "node",
      "id": 3013521318,
      "lat": 23.7303864,
      "lon": 90.4106227,
      "tags": {
        "name": "Camera Market (2nd Floor)",
        "shop": "electronics"
      }
    },
    {
      "type": "node",
      "id": 3013537221,
      "lat": 23.7298611,
      "lon": 90.4111234,
      "tags": {
        "name": "Robi Service Point",
        "shop": "mobile_phone",
        "website": "https://www.robi.com.bd/en"
      }
    },
    {
      "type": "node",
      "id": 3013551803,
      "lat": 23.7304213,
      "lon": 90.4118236,
      "tags": {
        "name": "Samsung Showroom",
        "shop": "mobile_phone"
      }
    },
    {
      "type": "node",
      "id": 3013559593,
      "lat": 23.7300542,
      "lon": 90.4109008,
      "tags": {
        "name": "Boishakhi Fashion",
        "shop": "yes"
      }
    },
    {
      "type": "node",
      "id": 3013559980,
      "lat": 23.7300426,
      "lon": 90.4108687,
      "tags": {
        "name": "Didar Shooes",
        "shop": "yes"
      }
    },
    {
      "type": "node",
      "id": 3013578684,
      "lat": 23.7305586,
      "lon": 90.4097576,
      "tags": {
        "name": "Padma Electric & Lighting",
        "shop": "yes"
      }
    },
    {
      "type": "node",
      "id": 3013581076,
      "lat": 23.7303713,
      "lon": 90.4098064,
      "tags": {
        "name": "B4U go",
        "shop": "travel_agency"
      }
    },
    {
      "type": "node",
      "id": 3013582750,
      "lat": 23.7304549,
      "lon": 90.409773,
      "tags": {
        "name": "Shafiqul Islam & Company",
        "shop": "yes"
      }
    },
    {
      "type": "node",
      "id": 3013583045,
      "lat": 23.7304033,
      "lon": 90.4097752,
      "tags": {
        "name": "Light Fair",
        "shop": "yes"
      }
    },
    {
      "type": "node",
      "id": 3013584954,
      "lat": 23.7305031,
      "lon": 90.4094884,
      "tags": {
        "name": "Olyampia Bakery",
        "shop": "bakery"
      }
    },
    {
      "type": "node",
      "id": 3013588774,
      "lat": 23.7304195,
      "lon": 90.4095171,
      "tags": {
        "name": "Sony Shawroom",
        "shop": "electronics",
        "website": "www.rangs.org"
      }
    },
    {
      "type": "node",
      "id": 3013597509,
      "lat": 23.7304269,
      "lon": 90.4087287,
      "tags": {
        "name": "Nokia Showroom",
        "shop": "mobile_phone"
      }
    },
    {
      "type": "node",
      "id": 3013599975,
      "lat": 23.7303402,
      "lon": 90.4086349,
      "tags": {
        "name": "Dhaka Travels & Tours",
        "shop": "travel_agency"
      }
    },
    {
      "type": "node",
      "id": 3013609262,
      "lat": 23.7303084,
      "lon": 90.4070548,
      "tags": {
        "name": "Orbit Travels",
        "shop": "travel_agency"
      }
    },
    {
      "type": "node",
      "id": 3015668089,
      "lat": 23.7742662,
      "lon": 90.3656965,
      "tags": {
        "name": "Shyamoli Surgical Traders",
        "shop": "medical_supply"
      }
    },
    {
      "type": "node",
      "id": 3015668704,
      "lat": 23.7749294,
      "lon": 90.3659648,
      "tags": {
        "name": "Shyamoli Shopping Center",
        "shop": "yes"
      }
    },
    {
      "type": "node",
      "id": 3016499880,
      "lat": 23.7516602,
      "lon": 90.3923119,
      "tags": {
        "name": "Bakers Bay",
        "shop": "bakery"
      }
    },
    {
      "type": "node",
      "id": 3016541626,
      "lat": 23.7530741,
      "lon": 90.3918314,
      "tags": {
        "name": "CarMudi",
        "shop": "car"
      }
    },
    {
      "type": "node",
      "id": 3016543151,
      "lat": 23.753018,
      "lon": 90.3918552,
      "tags": {
        "name": "AutoAddress",
        "shop": "car"
      }
    },
    {
      "type": "node",
      "id": 3016590516,
      "lat": 23.7982559,
      "lon": 90.3521263,
      "tags": {
        "name": "Grameen Phone Customer Care",
        "shop": "convenience"
      }
    },
    {
      "type": "node",
      "id": 3016662959,
      "lat": 23.7997894,
      "lon": 90.3555983,
      "tags": {
        "name": "Ritzy FashionWorld",
        "shop": "clothes"
      }
    },
    {
      "type": "node",
      "id": 3016664341,
      "lat": 23.8003745,
      "lon": 90.3552155,
      "tags": {
        "name": "Aim Enterprise",
        "shop": "yes"
      }
    },
    {
      "type": "node",
      "id": 3016666169,
      "lat": 23.8005271,
      "lon": 90.3550979,
      "tags": {
        "addr:city": "Dhaka",
        "addr:housenumber": "Plot 1",
        "addr:postcode": "1216",
        "addr:street": "Road 2",
        "name": "Sony Square",
        "phone": "+880 248040986",
        "shop": "supermarket"
      }
    },
    {
      "type": "node",
      "id": 3030299889,
      "lat": 23.7587466,
      "lon": 90.3640744,
      "tags": {
        "name": "Meena Bazar",
        "shop": "supermarket"
      }
    },
    {
      "type": "node",
      "id": 3093687988,
      "lat": 23.7517058,
      "lon": 90.4092933,
      "tags": {
        "name": "Sarker Shop",
        "shop": "yes"
      }
    },
    {
      "type": "node",
      "id": 3093696543,
      "lat": 23.7509044,
      "lon": 90.4089786,
      "tags": {
        "shop": "beauty"
      }
    },
    {
      "type": "node",
      "id": 3093948355,
      "lat": 23.7892283,
      "lon": 90.3538007,
      "tags": {
        "addr:city": "Dhaka",
        "addr:postcode": "1216",
        "addr:street": "Dar-Us-Salam Road",
        "opening_hours": "24/7",
        "operator": "Private",
        "shop": "tea"
      }
    },
    {
      "type": "node",
      "id": 3094233645,
      "lat": 23.7887777,
      "lon": 90.3524068,
      "tags": {
        "addr:city": "Dhaka",
        "addr:postcode": "1216",
        "name": "Sharirat Departmental Store",
        "shop": "department_store"
      }
    },
    {
      "type": "node",
      "id": 3107134012,
      "lat": 23.7932789,
      "lon": 90.4092818,
      "tags": {
        "addr:city": "Dhaka",
        "addr:housenumber": "60, 2nd Floor",
        "addr:postcode": "1213",
        "addr:street": "Kamal Ataturk",
        "name": "যাত্রা বাংলাদেশ লিমিটেড",
        "name:en": "Jatra Bangladesh Ltd",
        "opening_hours": "10:00-20:00",
        "phone": "+8802-8816770",
        "shop": "clothes",
        "website": "http://jatrabd.com/"
      }
    },
    {
      "type": "node",
      "id": 3232785665,
      "lat": 23.7388726,
      "lon": 90.3754023,
      "tags": {
        "addr:city": "Dhanmondi, Dhaka",
        "addr:postcode": "1209",
        "addr:street": "Road 2A",
        "internet_access": "wlan",
        "name": "Symphony ",
        "office": "research",
        "shop": "mobile_phone"
      }
    },
    {
      "type": "node",
      "id": 3296261259,
      "lat": 23.738649,
      "lon": 90.3708493,
      "tags": {
        "name": "RFL Best Buy Jigatala",
        "shop": "supermarket"
      }
    },
    {
      "type": "node",
      "id": 3307823181,
      "lat": 23.7298891,
      "lon": 90.3337401,
      "tags": {
        "name": "Ati Bazar Mosjid Market",
        "shop": "supermarket",
        "source": "Esri, Survey"
      }
    },
    {
      "type": "node",
      "id": 3307907187,
      "lat": 23.7294485,
      "lon": 90.3328972,
      "tags": {
        "name": "Chayaneer Complex",
        "shop": "supermarket",
        "source": "Esri, Survey"
      }
    },
    {
      "type": "node",
      "id": 3315889046,
      "lat": 23.7386565,
      "lon": 90.3755148,
      "tags": {
        "name": "Gallery Apex",
        "shop": "shoes"
      }
    },
    {
      "type": "node",
      "id": 3315890169,
      "lat": 23.7390813,
      "lon": 90.3752443,
      "tags": {
        "name": "Bata Showroom",
        "shop": "shoes"
      }
    },
    {
      "type": "node",
      "id": 3315890981,
      "lat": 23.7398861,
      "lon": 90.3748859,
      "tags": {
        "name": "Hi Fi Fashion Gallery",
        "shop": "furniture"
      }
    },
    {
      "type": "node",
      "id": 3320927144,
      "lat": 23.7420326,
      "lon": 90.359716,
      "tags": {
        "name": "Motor Workshop",
        "shop": "car_repair"
      }
    },
    {
      "type": "node",
      "id": 3323397773,
      "lat": 23.7151354,
      "lon": 90.3619438,
      "tags": {
        "name": "বুড়িগঙ্গা শহর শপিং কমপ্লেক্স",
        "name:en": "Burigonga City Shopping Complex",
        "shop": "supermarket"
      }
    },
    {
      "type": "node",
      "id": 3330016794,
      "lat": 23.7317251,
      "lon": 90.3653793,
      "tags": {
        "name": "Rony Paint",
        "note": "Kalunagar, Hazaribag",
        "shop": "paint",
        "source": "HOTOSM, MSF and Bing"
      }
    },
    {
      "type": "node",
      "id": 3332554006,
      "lat": 23.7397227,
      "lon": 90.3611356,
      "tags": {
        "name": "Karjon Motors",
        "shop": "car_repair"
      }
    },
    {
      "type": "node",
      "id": 3358930601,
      "lat": 23.8496662,
      "lon": 90.282089,
      "tags": {
        "name": "Purbo Rajason Bazar (Polur Dukan)",
        "shop": "supermarket"
      }
    },
    {
      "type": "node",
      "id": 3448049996,
      "lat": 23.7451093,
      "lon": 90.3735753,
      "tags": {
        "shop": "tailor"
      }
    },
    {
      "type": "node",
      "id": 3448063094,
      "lat": 23.8694571,
      "lon": 90.3897967,
      "tags": {
        "name": "Aagora",
        "shop": "supermarket"
      }
    },
    {
      "type": "node",
      "id": 3448655662,
      "lat": 23.7793609,
      "lon": 90.3989004,
      "tags": {
        "addr:city": "Dhaka",
        "addr:postcode": "1212",
        "addr:street": "New Airport Road",
        "name": "Mohakhali Kaca Bazar",
        "shop": "supermarket"
      }
    },
    {
      "type": "node",
      "id": 3448912020,
      "lat": 23.8384385,
      "lon": 90.2534269,
      "tags": {
        "name": "Fair Bazar",
        "shop": "supermarket"
      }
    },
    {
      "type": "node",
      "id": 3449980848,
      "lat": 23.839326,
      "lon": 90.2556208,
      "tags": {
        "name": "Ma-Moni Door Furniture",
        "shop": "furniture"
      }
    },
    {
      "type": "node",
      "id": 3449981064,
      "lat": 23.8401019,
      "lon": 90.2579219,
      "tags": {
        "name": "Sigma Autos",
        "shop": "car"
      }
    },
    {
      "type": "node",
      "id": 3449981322,
      "lat": 23.8390434,
      "lon": 90.2563201,
      "tags": {
        "name": "Shruti Motors",
        "shop": "motorcycle"
      }
    },
    {
      "type": "node",
      "id": 3449986767,
      "lat": 23.8475755,
      "lon": 90.2556163,
      "tags": {
        "name": "Bata",
        "shop": "shoes"
      }
    },
    {
      "type": "node",
      "id": 3449986973,
      "lat": 23.847754,
      "lon": 90.25634,
      "tags": {
        "name": "Sony",
        "shop": "electronics"
      }
    },
    {
      "type": "node",
      "id": 3449987104,
      "lat": 23.8478915,
      "lon": 90.2572499,
      "tags": {
        "name": "Jogesh Mistanno Vandar",
        "shop": "confectionery"
      }
    },
    {
      "type": "node",
      "id": 3458992092,
      "lat": 23.7411419,
      "lon": 90.4351676,
      "tags": {
        "name": "স্বপ্ন",
        "operator": "এসিআই লিমিটেড",
        "shop": "supermarket",
        "source": "local knowledge"
      }
    },
    {
      "type": "node",
      "id": 3473816992,
      "lat": 23.7101537,
      "lon": 90.3751948,
      "tags": {
        "name": "Haji Amin New City Super Market",
        "shop": "supermarket",
        "source": "Esri, Survey"
      }
    },
    {
      "type": "node",
      "id": 3485853988,
      "lat": 23.8674312,
      "lon": 90.3987768,
      "tags": {
        "addr:city": "Dhaka",
        "addr:postcode": "1230",
        "addr:street": "Rabindra Sarani, Uttara",
        "name": "Trust Family Needs",
        "opening_hours": "10:00-21:00",
        "phone": "+8802-8921561",
        "shop": "supermarket"
      }
    },
    {
      "type": "node",
      "id": 3488369659,
      "lat": 23.7931775,
      "lon": 90.4080386,
      "tags": {
        "addr:city": "Dhaka",
        "addr:city:ur": "ڈھاکہ",
        "addr:postcode": "1213",
        "name": "Banani Market",
        "name:ur": "بنانی مارکیٹ",
        "shop": "supermarket"
      }
    },
    {
      "type": "node",
      "id": 3525176804,
      "lat": 23.7524394,
      "lon": 90.4053802,
      "tags": {
        "addr:city": "Dhaka",
        "addr:housenumber": "638 GHA",
        "addr:street": "Peara Bag Road",
        "name": "vai vai and stationery",
        "shop": "stationery"
      }
    },
    {
      "type": "node",
      "id": 3525203922,
      "lat": 23.752003,
      "lon": 90.403586,
      "tags": {
        "addr:city": "Bara Maghbazar,Dhaka",
        "addr:housenumber": "619",
        "addr:postcode": "1217",
        "addr:street": "Red Crescent Shorak",
        "shop": "electronics"
      }
    },
    {
      "type": "node",
      "id": 3525223981,
      "lat": 23.7524688,
      "lon": 90.4054324,
      "tags": {
        "addr:housenumber": "638/ga",
        "addr:street": "PearaBagh Road",
        "name": "Star Electrincs",
        "shop": "electronics"
      }
    },
    {
      "type": "node",
      "id": 3525226550,
      "lat": 23.751982,
      "lon": 90.4035777,
      "tags": {
        "addr:city": "Bara Maghbazar,Dhaka",
        "addr:housenumber": "619",
        "addr:postcode": "1217",
        "addr:street": "Red Crescent Shorak",
        "shop": "leather"
      }
    },
    {
      "type": "node",
      "id": 3525234118,
      "lat": 23.7539287,
      "lon": 90.4070358,
      "tags": {
        "shop": "hardware"
      }
    },
    {
      "type": "node",
      "id": 3525240187,
      "lat": 23.7539875,
      "lon": 90.4071982,
      "tags": {
        "shop": "furniture"
      }
    },
    {
      "type": "node",
      "id": 3525240693,
      "lat": 23.751934,
      "lon": 90.4035602,
      "tags": {
        "addr:city": "Bara Maghbazar,Dhaka",
        "addr:housenumber": "619",
        "addr:postcode": "1217",
        "addr:street": "Red Crescent Shorak",
        "shop": "photo_studio"
      }
    },
    {
      "type": "node",
      "id": 3525242399,
      "lat": 23.7539695,
      "lon": 90.4072397,
      "tags": {
        "name": "Digital Studio",
        "shop": "photo_studio"
      }
    },
    {
      "type": "node",
      "id": 3525247481,
      "lat": 23.7511369,
      "lon": 90.4043283,
      "tags": {
        "addr:city": "Dhaka",
        "addr:housenumber": "638",
        "addr:street": "PearaBagh Road",
        "shop": "tailor"
      }
    },
    {
      "type": "node",
      "id": 3525248947,
      "lat": 23.7518254,
      "lon": 90.4035511,
      "tags": {
        "shop": "furniture"
      }
    },
    {
      "type": "node",
      "id": 3525256254,
      "lat": 23.7536031,
      "lon": 90.4064989,
      "tags": {
        "shop": "laundry"
      }
    },
    {
      "type": "node",
      "id": 3525256269,
      "lat": 23.7536424,
      "lon": 90.4065553,
      "tags": {
        "shop": "confectionery"
      }
    },
    {
      "type": "node",
      "id": 3525268008,
      "lat": 23.7549482,
      "lon": 90.4076047,
      "tags": {
        "shop": "variety_store"
      }
    },
    {
      "type": "node",
      "id": 3525269506,
      "lat": 23.7549207,
      "lon": 90.4076011,
      "tags": {
        "shop": "tailor"
      }
    },
    {
      "type": "node",
      "id": 3525272076,
      "lat": 23.7544111,
      "lon": 90.4057363,
      "tags": {
        "shop": "yes"
      }
    },
    {
      "type": "node",
      "id": 3525272111,
      "lat": 23.754197,
      "lon": 90.4085448,
      "tags": {
        "name": "Ma Computer",
        "shop": "copyshop"
      }
    },
    {
      "type": "node",
      "id": 3525273059,
      "lat": 23.7520895,
      "lon": 90.4055027,
      "tags": {
        "addr:city": "Dhaka",
        "addr:housenumber": "638",
        "addr:street": "PearaBagh Road",
        "name": "Zhorna Jewellers",
        "shop": "jewelry"
      }
    },
    {
      "type": "node",
      "id": 3525274986,
      "lat": 23.7519011,
      "lon": 90.4034493,
      "tags": {
        "addr:city": "Bara Maghbazar,Dhaka",
        "addr:housenumber": "691",
        "addr:postcode": "1217",
        "addr:street": "Red Crescent Shorak",
        "shop": "variety_store"
      }
    },
    {
      "type": "node",
      "id": 3525276229,
      "lat": 23.7542128,
      "lon": 90.4087277,
      "tags": {
        "shop": "convenience"
      }
    },
    {
      "type": "node",
      "id": 3525279819,
      "lat": 23.7547108,
      "lon": 90.4055546,
      "tags": {
        "note": "barber",
        "shop": "hairdresser"
      }
    },
    {
      "type": "node",
      "id": 3525280945,
      "lat": 23.7542295,
      "lon": 90.4066848,
      "tags": {
        "shop": "grocery"
      }
    },
    {
      "type": "node",
      "id": 3525284204,
      "lat": 23.7545782,
      "lon": 90.4057075,
      "tags": {
        "shop": "yes"
      }
    },
    {
      "type": "node",
      "id": 3525303295,
      "lat": 23.7520525,
      "lon": 90.4055098,
      "tags": {
        "addr:city": "Dhaka",
        "addr:housenumber": "638/Kha",
        "addr:street": "PearaBagh Road",
        "name": "Mrs Gawsea Store",
        "shop": "stationery"
      }
    },
    {
      "type": "node",
      "id": 3525308901,
      "lat": 23.7520149,
      "lon": 90.4055052,
      "tags": {
        "addr:city": "Dhaka",
        "addr:housenumber": "638/Kha",
        "addr:street": "PearaBagh Road",
        "name": "Nishi Bosro Betan",
        "shop": "clothes"
      }
    },
    {
      "type": "node",
      "id": 3525314474,
      "lat": 23.7542139,
      "lon": 90.4093307,
      "tags": {
        "shop": "furniture"
      }
    },
    {
      "type": "node",
      "id": 3525315432,
      "lat": 23.7520112,
      "lon": 90.4055405,
      "tags": {
        "addr:city": "Dhaka",
        "addr:housenumber": "638/Kha",
        "addr:street": "PearaBagh Road",
        "name": "Ewsuf bakery",
        "shop": "bakery"
      }
    },
    {
      "type": "node",
      "id": 3525319386,
      "lat": 23.7541465,
      "lon": 90.4083086,
      "tags": {
        "name": "Zinnat Enterprise",
        "shop": "gas"
      }
    },
    {
      "type": "node",
      "id": 3525361563,
      "lat": 23.751891,
      "lon": 90.405603,
      "tags": {
        "addr:city": "Dhaka",
        "addr:housenumber": "637",
        "addr:street": "PearaBagh Road",
        "name": "Reza Tailor",
        "shop": "tailor"
      }
    },
    {
      "type": "node",
      "id": 3525379947,
      "lat": 23.7518582,
      "lon": 90.4056004,
      "tags": {
        "addr:city": "Dhaka",
        "addr:housenumber": "637",
        "addr:street": "PearaBagh Road",
        "name": "Computer System",
        "shop": "computer"
      }
    },
    {
      "type": "node",
      "id": 3529042722,
      "lat": 23.7343156,
      "lon": 90.364803,
      "tags": {
        "name": "Sekaritola Bazar",
        "shop": "supermarket"
      }
    },
    {
      "type": "node",
      "id": 3529071886,
      "lat": 23.7334519,
      "lon": 90.3658431,
      "tags": {
        "name": "Agiba Store",
        "shop": "convenience"
      }
    },
    {
      "type": "node",
      "id": 3530286986,
      "lat": 23.7005583,
      "lon": 90.4208109,
      "tags": {
        "shop": "copyshop"
      }
    },
    {
      "type": "node",
      "id": 3530850127,
      "lat": 23.7058321,
      "lon": 90.420148,
      "tags": {
        "name": "Glass Store",
        "shop": "trade"
      }
    },
    {
      "type": "node",
      "id": 3530850128,
      "lat": 23.7058104,
      "lon": 90.4202717,
      "tags": {
        "name": "Ladies Tailor",
        "shop": "tailor"
      }
    },
    {
      "type": "node",
      "id": 3530850144,
      "lat": 23.7057158,
      "lon": 90.4207918,
      "tags": {
        "shop": "clothes"
      }
    },
    {
      "type": "node",
      "id": 3530850147,
      "lat": 23.7058009,
      "lon": 90.4203725,
      "tags": {
        "shop": "clothes"
      }
    },
    {
      "type": "node",
      "id": 3530850148,
      "lat": 23.7058025,
      "lon": 90.4204127,
      "tags": {
        "shop": "clothes"
      }
    },
    {
      "type": "node",
      "id": 3530850149,
      "lat": 23.7058215,
      "lon": 90.4203023,
      "tags": {
        "shop": "copyshop"
      }
    },
    {
      "type": "node",
      "id": 3530850150,
      "lat": 23.7058065,
      "lon": 90.4204773,
      "tags": {
        "shop": "clothes"
      }
    },
    {
      "type": "node",
      "id": 3530850151,
      "lat": 23.7058065,
      "lon": 90.4205157,
      "tags": {
        "shop": "clothes"
      }
    },
    {
      "type": "node",
      "id": 3530850152,
      "lat": 23.7058121,
      "lon": 90.4205996,
      "tags": {
        "shop": "clothes"
      }
    },
    {
      "type": "node",
      "id": 3530850153,
      "lat": 23.7058129,
      "lon": 90.4205699,
      "tags": {
        "opening_hours": "0fixme=Survey opening and closing hours, was \"8\".8:00",
        "shop": "clothes"
      }
    },
    {
      "type": "node",
      "id": 3530850154,
      "lat": 23.7058129,
      "lon": 90.4206336,
      "tags": {
        "shop": "clothes"
      }
    },
    {
      "type": "node",
      "id": 3530850155,
      "lat": 23.7058129,
      "lon": 90.4206747,
      "tags": {
        "shop": "clothes"
      }
    },
    {
      "type": "node",
      "id": 3530850156,
      "lat": 23.7058177,
      "lon": 90.4202415,
      "tags": {
        "shop": "electronics"
      }
    },
    {
      "type": "node",
      "id": 3530850157,
      "lat": 23.7058185,
      "lon": 90.4202161,
      "tags": {
        "shop": "clothes"
      }
    },
    {
      "type": "node",
      "id": 3530850158,
      "lat": 23.7058259,
      "lon": 90.4201822,
      "tags": {
        "shop": "copyshop"
      }
    },
    {
      "type": "node",
      "id": 3530850159,
      "lat": 23.7058361,
      "lon": 90.4201288,
      "tags": {
        "shop": "clothes"
      }
    },
    {
      "type": "node",
      "id": 3530850161,
      "lat": 23.7058423,
      "lon": 90.4200922,
      "tags": {
        "shop": "convenience"
      }
    },
    {
      "type": "node",
      "id": 3530850162,
      "lat": 23.7058401,
      "lon": 90.4206913,
      "tags": {
        "shop": "clothes"
      }
    },
    {
      "type": "node",
      "id": 3530850163,
      "lat": 23.7058889,
      "lon": 90.4206956,
      "tags": {
        "shop": "clothes"
      }
    },
    {
      "type": "node",
      "id": 3530858958,
      "lat": 23.7056593,
      "lon": 90.4206479,
      "tags": {
        "shop": "clothes"
      }
    },
    {
      "type": "node",
      "id": 3530858959,
      "lat": 23.7056857,
      "lon": 90.4205143,
      "tags": {
        "shop": "clothes"
      }
    },
    {
      "type": "node",
      "id": 3530858960,
      "lat": 23.7056865,
      "lon": 90.4205562,
      "tags": {
        "shop": "clothes"
      }
    },
    {
      "type": "node",
      "id": 3530858961,
      "lat": 23.7056865,
      "lon": 90.4206339,
      "tags": {
        "shop": "clothes"
      }
    },
    {
      "type": "node",
      "id": 3530858962,
      "lat": 23.7056873,
      "lon": 90.4204453,
      "tags": {
        "shop": "clothes"
      }
    },
    {
      "type": "node",
      "id": 3530858963,
      "lat": 23.7056873,
      "lon": 90.4205937,
      "tags": {
        "shop": "clothes"
      }
    },
    {
      "type": "node",
      "id": 3530858964,
      "lat": 23.7056881,
      "lon": 90.4204776,
      "tags": {
        "shop": "clothes"
      }
    },
    {
      "type": "node",
      "id": 3530858965,
      "lat": 23.7056929,
      "lon": 90.4203282,
      "tags": {
        "shop": "clothes"
      }
    },
    {
      "type": "node",
      "id": 3530858966,
      "lat": 23.7056969,
      "lon": 90.420268,
      "tags": {
        "shop": "clothes"
      }
    },
    {
      "type": "node",
      "id": 3532039272,
      "lat": 23.7007676,
      "lon": 90.4207448,
      "tags": {
        "name": "Mim Wood Complex",
        "shop": "trade"
      }
    },
    {
      "type": "node",
      "id": 3532039273,
      "lat": 23.7008805,
      "lon": 90.4206962,
      "tags": {
        "name": "Irin Furniture",
        "shop": "furniture"
      }
    },
    {
      "type": "node",
      "id": 3532039274,
      "lat": 23.7009315,
      "lon": 90.4206774,
      "tags": {
        "name": "Ruma Trading",
        "shop": "yes"
      }
    },
    {
      "type": "node",
      "id": 3532039275,
      "lat": 23.7009984,
      "lon": 90.4206412,
      "tags": {
        "shop": "trade"
      }
    },
    {
      "type": "node",
      "id": 3532075901,
      "lat": 23.7011272,
      "lon": 90.4209754,
      "tags": {
        "shop": "chemist"
      }
    },
    {
      "type": "node",
      "id": 3532111179,
      "lat": 23.7041088,
      "lon": 90.4242782,
      "tags": {
        "shop": "laundry"
      }
    },
    {
      "type": "node",
      "id": 3532111180,
      "lat": 23.7041411,
      "lon": 90.424315,
      "tags": {
        "shop": "electronics"
      }
    },
    {
      "type": "node",
      "id": 3532111181,
      "lat": 23.7041667,
      "lon": 90.4243154,
      "tags": {
        "shop": "beauty"
      }
    },
    {
      "type": "node",
      "id": 3532115226,
      "lat": 23.7020367,
      "lon": 90.4203109,
      "tags": {
        "shop": "electronics"
      }
    },
    {
      "type": "node",
      "id": 3532116838,
      "lat": 23.7020989,
      "lon": 90.4202386,
      "tags": {
        "shop": "paper"
      }
    },
    {
      "type": "node",
      "id": 3532117064,
      "lat": 23.7020588,
      "lon": 90.4202868,
      "tags": {
        "shop": "variety_store"
      }
    },
    {
      "type": "node",
      "id": 3532117065,
      "lat": 23.7020798,
      "lon": 90.4202616,
      "tags": {
        "shop": "chemist"
      }
    },
    {
      "type": "node",
      "id": 3532117357,
      "lat": 23.702135,
      "lon": 90.4201871,
      "tags": {
        "shop": "variety_store"
      }
    },
    {
      "type": "node",
      "id": 3532118176,
      "lat": 23.702117,
      "lon": 90.4202167,
      "tags": {
        "shop": "shoes"
      }
    },
    {
      "type": "node",
      "id": 3532120163,
      "lat": 23.702274,
      "lon": 90.4203518,
      "tags": {
        "shop": "variety_store"
      }
    },
    {
      "type": "node",
      "id": 3532120505,
      "lat": 23.7021511,
      "lon": 90.4201444,
      "tags": {
        "shop": "mobile_recharge"
      }
    },
    {
      "type": "node",
      "id": 3532120629,
      "lat": 23.7021007,
      "lon": 90.4200458,
      "tags": {
        "shop": "mobile_recharge"
      }
    },
    {
      "type": "node",
      "id": 3532120980,
      "lat": 23.7022513,
      "lon": 90.4203549,
      "tags": {
        "shop": "chemist"
      }
    },
    {
      "type": "node",
      "id": 3532121527,
      "lat": 23.7023243,
      "lon": 90.4200081,
      "tags": {
        "shop": "tailor"
      }
    },
    {
      "type": "node",
      "id": 3532121822,
      "lat": 23.7022995,
      "lon": 90.4203518,
      "tags": {
        "shop": "variety_store"
      }
    },
    {
      "type": "node",
      "id": 3532122536,
      "lat": 23.7023043,
      "lon": 90.420065,
      "tags": {
        "shop": "mobile_recharge"
      }
    },
    {
      "type": "node",
      "id": 3532122657,
      "lat": 23.7022801,
      "lon": 90.4201314,
      "tags": {
        "shop": "tailor"
      }
    },
    {
      "type": "node",
      "id": 3532122669,
      "lat": 23.70229,
      "lon": 90.4201066,
      "tags": {
        "shop": "furniture"
      }
    },
    {
      "type": "node",
      "id": 3532123398,
      "lat": 23.7022982,
      "lon": 90.4200837,
      "tags": {
        "shop": "hairdresser"
      }
    },
    {
      "type": "node",
      "id": 3532123444,
      "lat": 23.7007117,
      "lon": 90.4215652,
      "tags": {
        "shop": "tea"
      }
    },
    {
      "type": "node",
      "id": 3532124396,
      "lat": 23.7023133,
      "lon": 90.4200398,
      "tags": {
        "shop": "variety_store"
      }
    },
    {
      "type": "node",
      "id": 3532124697,
      "lat": 23.7024395,
      "lon": 90.4203661,
      "tags": {
        "shop": "convenience"
      }
    },
    {
      "type": "node",
      "id": 3532126195,
      "lat": 23.7023364,
      "lon": 90.4199785,
      "tags": {
        "shop": "video"
      }
    },
    {
      "type": "node",
      "id": 3532144666,
      "lat": 23.7024154,
      "lon": 90.4203584,
      "tags": {
        "shop": "convenience"
      }
    },
    {
      "type": "node",
      "id": 3532144683,
      "lat": 23.702509,
      "lon": 90.4203987,
      "tags": {
        "shop": "cable"
      }
    },
    {
      "type": "node",
      "id": 3532144684,
      "lat": 23.7025417,
      "lon": 90.4203956,
      "tags": {
        "shop": "glass"
      }
    },
    {
      "type": "node",
      "id": 3532144685,
      "lat": 23.7025672,
      "lon": 90.420394,
      "tags": {
        "shop": "mobile_recharge"
      }
    },
    {
      "type": "node",
      "id": 3532154096,
      "lat": 23.7028141,
      "lon": 90.4204359,
      "tags": {
        "shop": "tailor"
      }
    },
    {
      "type": "node",
      "id": 3532156203,
      "lat": 23.702746,
      "lon": 90.4204312,
      "tags": {
        "shop": "laundry"
      }
    },
    {
      "type": "node",
      "id": 3532168174,
      "lat": 23.7022229,
      "lon": 90.4222256,
      "tags": {
        "shop": "furniture"
      }
    },
    {
      "type": "node",
      "id": 3532174771,
      "lat": 23.7022222,
      "lon": 90.4222884,
      "tags": {
        "shop": "furniture"
      }
    },
    {
      "type": "node",
      "id": 3532174772,
      "lat": 23.7022222,
      "lon": 90.4223117,
      "tags": {
        "shop": "furniture"
      }
    },
    {
      "type": "node",
      "id": 3532174773,
      "lat": 23.7022229,
      "lon": 90.4223273,
      "tags": {
        "shop": "furniture"
      }
    },
    {
      "type": "node",
      "id": 3532174774,
      "lat": 23.7022236,
      "lon": 90.4222473,
      "tags": {
        "shop": "furniture"
      }
    },
    {
      "type": "node",
      "id": 3532174775,
      "lat": 23.7022236,
      "lon": 90.4223598,
      "tags": {
        "shop": "furniture"
      }
    },
    {
      "type": "node",
      "id": 3532174776,
      "lat": 23.7022243,
      "lon": 90.4222714,
      "tags": {
        "shop": "furniture"
      }
    },
    {
      "type": "node",
      "id": 3532174777,
      "lat": 23.7022243,
      "lon": 90.4224064,
      "tags": {
        "shop": "furniture"
      }
    },
    {
      "type": "node",
      "id": 3532174778,
      "lat": 23.7022243,
      "lon": 90.4224266,
      "tags": {
        "shop": "furniture"
      }
    },
    {
      "type": "node",
      "id": 3532174779,
      "lat": 23.7022243,
      "lon": 90.4224638,
      "tags": {
        "shop": "furniture"
      }
    },
    {
      "type": "node",
      "id": 3532174780,
      "lat": 23.702225,
      "lon": 90.4223435,
      "tags": {
        "shop": "furniture"
      }
    },
    {
      "type": "node",
      "id": 3532174781,
      "lat": 23.702225,
      "lon": 90.4223816,
      "tags": {
        "shop": "furniture"
      }
    },
    {
      "type": "node",
      "id": 3532174782,
      "lat": 23.7022264,
      "lon": 90.4225081,
      "tags": {
        "shop": "furniture"
      }
    },
    {
      "type": "node",
      "id": 3532236299,
      "lat": 23.7020093,
      "lon": 90.4225491,
      "tags": {
        "shop": "convenience"
      }
    },
    {
      "type": "node",
      "id": 3532236300,
      "lat": 23.7020283,
      "lon": 90.4225616,
      "tags": {
        "shop": "convenience"
      }
    },
    {
      "type": "node",
      "id": 3532240013,
      "lat": 23.7012651,
      "lon": 90.4212377,
      "tags": {
        "name": "Shilpi Jewellery",
        "shop": "jewelry"
      }
    },
    {
      "type": "node",
      "id": 3532240014,
      "lat": 23.7012462,
      "lon": 90.4211259,
      "tags": {
        "shop": "convenience"
      }
    },
    {
      "type": "node",
      "id": 3532240015,
      "lat": 23.7012492,
      "lon": 90.4211771,
      "tags": {
        "shop": "convenience"
      }
    },
    {
      "type": "node",
      "id": 3532240016,
      "lat": 23.7013176,
      "lon": 90.4214928,
      "tags": {
        "shop": "furniture"
      }
    },
    {
      "type": "node",
      "id": 3532240017,
      "lat": 23.7013211,
      "lon": 90.4215196,
      "tags": {
        "shop": "furniture"
      }
    },
    {
      "type": "node",
      "id": 3532240019,
      "lat": 23.7013455,
      "lon": 90.4215212,
      "tags": {
        "shop": "furniture"
      }
    },
    {
      "type": "node",
      "id": 3532240020,
      "lat": 23.7013785,
      "lon": 90.4215245,
      "tags": {
        "shop": "furniture"
      }
    },
    {
      "type": "node",
      "id": 3532240249,
      "lat": 23.7021645,
      "lon": 90.4225472,
      "tags": {
        "shop": "furniture"
      }
    },
    {
      "type": "node",
      "id": 3532240250,
      "lat": 23.7021653,
      "lon": 90.4223607,
      "tags": {
        "shop": "furniture"
      }
    },
    {
      "type": "node",
      "id": 3532240251,
      "lat": 23.7021653,
      "lon": 90.4223937,
      "tags": {
        "shop": "furniture"
      }
    },
    {
      "type": "node",
      "id": 3532240252,
      "lat": 23.7021653,
      "lon": 90.4224226,
      "tags": {
        "shop": "furniture"
      }
    },
    {
      "type": "node",
      "id": 3532240253,
      "lat": 23.7021661,
      "lon": 90.4225158,
      "tags": {
        "shop": "furniture"
      }
    },
    {
      "type": "node",
      "id": 3532240254,
      "lat": 23.7021669,
      "lon": 90.4223395,
      "tags": {
        "shop": "furniture"
      }
    },
    {
      "type": "node",
      "id": 3532240255,
      "lat": 23.7021676,
      "lon": 90.4223149,
      "tags": {
        "shop": "furniture"
      }
    },
    {
      "type": "node",
      "id": 3532240256,
      "lat": 23.7021684,
      "lon": 90.4224531,
      "tags": {
        "shop": "furniture"
      }
    },
    {
      "type": "node",
      "id": 3532240257,
      "lat": 23.7021692,
      "lon": 90.4222844,
      "tags": {
        "shop": "furniture"
      }
    },
    {
      "type": "node",
      "id": 3532240258,
      "lat": 23.70217,
      "lon": 90.4222572,
      "tags": {
        "shop": "furniture"
      }
    },
    {
      "type": "node",
      "id": 3532240259,
      "lat": 23.7021715,
      "lon": 90.4222258,
      "tags": {
        "shop": "furniture"
      }
    },
    {
      "type": "node",
      "id": 3532241208,
      "lat": 23.7044956,
      "lon": 90.4243138,
      "tags": {
        "shop": "tailor"
      }
    },
    {
      "type": "node",
      "id": 3532242104,
      "lat": 23.7028072,
      "lon": 90.4205178,
      "tags": {
        "shop": "bakery"
      }
    },
    {
      "type": "node",
      "id": 3532242518,
      "lat": 23.7008415,
      "lon": 90.4211246,
      "tags": {
        "name": "Furniture",
        "shop": "furniture"
      }
    },
    {
      "type": "node",
      "id": 3532242519,
      "lat": 23.7017498,
      "lon": 90.4214886,
      "tags": {
        "name": "Wood Shop",
        "shop": "furniture"
      }
    },
    {
      "type": "node",
      "id": 3532246422,
      "lat": 23.7049421,
      "lon": 90.4229274,
      "tags": {
        "shop": "laundry"
      }
    },
    {
      "type": "node",
      "id": 3532246423,
      "lat": 23.7049562,
      "lon": 90.4228927,
      "tags": {
        "shop": "furniture"
      }
    },
    {
      "type": "node",
      "id": 3532246446,
      "lat": 23.7019367,
      "lon": 90.4225632,
      "tags": {
        "shop": "furniture"
      }
    },
    {
      "type": "node",
      "id": 3532246447,
      "lat": 23.7019375,
      "lon": 90.4225301,
      "tags": {
        "shop": "furniture"
      }
    },
    {
      "type": "node",
      "id": 3532246448,
      "lat": 23.7019383,
      "lon": 90.4224606,
      "tags": {
        "shop": "furniture"
      }
    },
    {
      "type": "node",
      "id": 3532246449,
      "lat": 23.7019383,
      "lon": 90.4224971,
      "tags": {
        "shop": "furniture"
      }
    },
    {
      "type": "node",
      "id": 3532246450,
      "lat": 23.7019369,
      "lon": 90.4223371,
      "tags": {
        "shop": "furniture"
      }
    },
    {
      "type": "node",
      "id": 3532246451,
      "lat": 23.7019356,
      "lon": 90.422373,
      "tags": {
        "shop": "furniture"
      }
    },
    {
      "type": "node",
      "id": 3532246452,
      "lat": 23.7019342,
      "lon": 90.4224075,
      "tags": {
        "shop": "furniture"
      }
    },
    {
      "type": "node",
      "id": 3532246453,
      "lat": 23.7019356,
      "lon": 90.4222996,
      "tags": {
        "shop": "furniture"
      }
    },
    {
      "type": "node",
      "id": 3532247397,
      "lat": 23.7012933,
      "lon": 90.4220036,
      "tags": {
        "shop": "furniture"
      }
    },
    {
      "type": "node",
      "id": 3532247400,
      "lat": 23.7013067,
      "lon": 90.4220614,
      "tags": {
        "shop": "tailor"
      }
    },
    {
      "type": "node",
      "id": 3532247403,
      "lat": 23.7013095,
      "lon": 90.4220911,
      "tags": {
        "shop": "tea"
      }
    },
    {
      "type": "node",
      "id": 3532268796,
      "lat": 23.7028341,
      "lon": 90.4205139,
      "tags": {
        "shop": "tailor"
      }
    },
    {
      "type": "node",
      "id": 3532268814,
      "lat": 23.7023531,
      "lon": 90.4230809,
      "tags": {
        "shop": "furniture"
      }
    },
    {
      "type": "node",
      "id": 3532286139,
      "lat": 23.7019108,
      "lon": 90.423793,
      "tags": {
        "shop": "books"
      }
    },
    {
      "type": "node",
      "id": 3532287227,
      "lat": 23.7051679,
      "lon": 90.4239897,
      "tags": {
        "shop": "convenience"
      }
    },
    {
      "type": "node",
      "id": 3532287228,
      "lat": 23.7053047,
      "lon": 90.4240168,
      "tags": {
        "shop": "convenience"
      }
    },
    {
      "type": "node",
      "id": 3532287230,
      "lat": 23.7012266,
      "lon": 90.4234014,
      "tags": {
        "shop": "hardware"
      }
    },
    {
      "type": "node",
      "id": 3532287231,
      "lat": 23.7012288,
      "lon": 90.4233421,
      "tags": {
        "shop": "kiosk"
      }
    },
    {
      "type": "node",
      "id": 3532287232,
      "lat": 23.7012356,
      "lon": 90.423462,
      "tags": {
        "shop": "kiosk"
      }
    },
    {
      "type": "node",
      "id": 3532288666,
      "lat": 23.7028497,
      "lon": 90.4206363,
      "tags": {
        "shop": "convenience"
      }
    },
    {
      "type": "node",
      "id": 3532288667,
      "lat": 23.7028533,
      "lon": 90.420651,
      "tags": {
        "shop": "convenience"
      }
    },
    {
      "type": "node",
      "id": 3532288668,
      "lat": 23.7028568,
      "lon": 90.4206657,
      "tags": {
        "shop": "convenience"
      }
    },
    {
      "type": "node",
      "id": 3532297040,
      "lat": 23.7021228,
      "lon": 90.4238859,
      "tags": {
        "shop": "clothes"
      }
    },
    {
      "type": "node",
      "id": 3532297042,
      "lat": 23.7021639,
      "lon": 90.4238838,
      "tags": {
        "shop": "electronics"
      }
    },
    {
      "type": "node",
      "id": 3532297043,
      "lat": 23.7021923,
      "lon": 90.4238834,
      "tags": {
        "shop": "copyshop"
      }
    },
    {
      "type": "node",
      "id": 3532297175,
      "lat": 23.7012341,
      "lon": 90.4231934,
      "tags": {
        "shop": "tailor"
      }
    },
    {
      "type": "node",
      "id": 3532297176,
      "lat": 23.7012345,
      "lon": 90.4231567,
      "tags": {
        "shop": "kiosk"
      }
    },
    {
      "type": "node",
      "id": 3532297177,
      "lat": 23.7012345,
      "lon": 90.4232406,
      "tags": {
        "shop": "hairdresser"
      }
    },
    {
      "type": "node",
      "id": 3532297959,
      "lat": 23.7085805,
      "lon": 90.4236379,
      "tags": {
        "shop": "car_repair"
      }
    },
    {
      "type": "node",
      "id": 3532297971,
      "lat": 23.7050325,
      "lon": 90.423971,
      "tags": {
        "shop": "convenience"
      }
    },
    {
      "type": "node",
      "id": 3532298175,
      "lat": 23.7010305,
      "lon": 90.4205489,
      "tags": {
        "shop": "recycle shop"
      }
    },
    {
      "type": "node",
      "id": 3532298176,
      "lat": 23.701048,
      "lon": 90.4205407,
      "tags": {
        "shop": "gift"
      }
    },
    {
      "type": "node",
      "id": 3532302001,
      "lat": 23.7038597,
      "lon": 90.4218059,
      "tags": {
        "name": "Faysal Electronics",
        "shop": "electronics"
      }
    },
    {
      "type": "node",
      "id": 3532302002,
      "lat": 23.7038672,
      "lon": 90.4218237,
      "tags": {
        "shop": "tailor"
      }
    },
    {
      "type": "node",
      "id": 3532302004,
      "lat": 23.703881,
      "lon": 90.4218469,
      "tags": {
        "name": "Mayer Doya",
        "shop": "electronics"
      }
    },
    {
      "type": "node",
      "id": 3532302005,
      "lat": 23.7038898,
      "lon": 90.4218634,
      "tags": {
        "name": "Sun King Auto Dry Cleaners",
        "shop": "laundry"
      }
    },
    {
      "type": "node",
      "id": 3532302006,
      "lat": 23.7038954,
      "lon": 90.4218757,
      "tags": {
        "shop": "variety_store"
      }
    },
    {
      "type": "node",
      "id": 3532302011,
      "lat": 23.7039199,
      "lon": 90.4218723,
      "tags": {
        "name": "Takwa General Store",
        "shop": "general"
      }
    },
    {
      "type": "node",
      "id": 3532302014,
      "lat": 23.7039657,
      "lon": 90.4218661,
      "tags": {
        "shop": "furniture"
      }
    },
    {
      "type": "node",
      "id": 3532302017,
      "lat": 23.703993,
      "lon": 90.421932,
      "tags": {
        "name": "Shah Ali biday ghor & tailors",
        "shop": "funeral_directors"
      }
    },
    {
      "type": "node",
      "id": 3532302019,
      "lat": 23.7040791,
      "lon": 90.421835,
      "tags": {
        "name": "Ali & Co. Tailors",
        "shop": "tailor"
      }
    },
    {
      "type": "node",
      "id": 3532302030,
      "lat": 23.7046361,
      "lon": 90.4244005,
      "tags": {
        "shop": "furniture"
      }
    },
    {
      "type": "node",
      "id": 3532302031,
      "lat": 23.7039469,
      "lon": 90.4219436,
      "tags": {
        "name": "Shahnaj Computer Graphics",
        "shop": "computer"
      }
    },
    {
      "type": "node",
      "id": 3532302032,
      "lat": 23.7039584,
      "lon": 90.421961,
      "tags": {
        "shop": "general"
      }
    },
    {
      "type": "node",
      "id": 3532302033,
      "lat": 23.7039681,
      "lon": 90.4219329,
      "tags": {
        "name": "Melody electrical & electronics service",
        "shop": "musical_instrument"
      }
    },
    {
      "type": "node",
      "id": 3532308788,
      "lat": 23.7022366,
      "lon": 90.4238927,
      "tags": {
        "shop": "tailor"
      }
    },
    {
      "type": "node",
      "id": 3532308789,
      "lat": 23.7022645,
      "lon": 90.4238953,
      "tags": {
        "shop": "beauty"
      }
    },
    {
      "type": "node",
      "id": 3532308790,
      "lat": 23.7022917,
      "lon": 90.4238936,
      "tags": {
        "shop": "hairdresser"
      }
    },
    {
      "type": "node",
      "id": 3532308791,
      "lat": 23.7023189,
      "lon": 90.4238944,
      "tags": {
        "shop": "computer"
      }
    },
    {
      "type": "node",
      "id": 3532309327,
      "lat": 23.7041837,
      "lon": 90.4228099,
      "tags": {
        "shop": "variety_store"
      }
    },
    {
      "type": "node",
      "id": 3532309340,
      "lat": 23.7039662,
      "lon": 90.423261,
      "tags": {
        "shop": "tailor"
      }
    },
    {
      "type": "node",
      "id": 3532309341,
      "lat": 23.7040508,
      "lon": 90.4238398,
      "tags": {
        "shop": "tailor"
      }
    },
    {
      "type": "node",
      "id": 3532309347,
      "lat": 23.7040784,
      "lon": 90.4238081,
      "tags": {
        "shop": "convenience"
      }
    },
    {
      "type": "node",
      "id": 3532309351,
      "lat": 23.7040975,
      "lon": 90.4232296,
      "tags": {
        "shop": "chemist"
      }
    },
    {
      "type": "node",
      "id": 3532309352,
      "lat": 23.7040985,
      "lon": 90.4231811,
      "tags": {
        "shop": "convenience"
      }
    },
    {
      "type": "node",
      "id": 3532310050,
      "lat": 23.7028989,
      "lon": 90.4207606,
      "tags": {
        "name": "Humaira Store",
        "shop": "general"
      }
    },
    {
      "type": "node",
      "id": 3532310088,
      "lat": 23.7012359,
      "lon": 90.4245095,
      "tags": {
        "shop": "beauty"
      }
    },
    {
      "type": "node",
      "id": 3532312521,
      "lat": 23.7047081,
      "lon": 90.4243916,
      "tags": {
        "shop": "hardware"
      }
    },
    {
      "type": "node",
      "id": 3532312527,
      "lat": 23.7013974,
      "lon": 90.4268385,
      "tags": {
        "name": "Satata Homeo Aroggo Bitan",
        "shop": "yes"
      }
    },
    {
      "type": "node",
      "id": 3532312528,
      "lat": 23.7013991,
      "lon": 90.4268673,
      "tags": {
        "name": "M Rahman Bedding Store",
        "shop": "yes"
      }
    },
    {
      "type": "node",
      "id": 3532312529,
      "lat": 23.7013991,
      "lon": 90.4268944,
      "tags": {
        "name": "Mim General Store",
        "shop": "variety_store"
      }
    },
    {
      "type": "node",
      "id": 3532312530,
      "lat": 23.7027615,
      "lon": 90.4243877,
      "tags": {
        "shop": "electronics"
      }
    },
    {
      "type": "node",
      "id": 3532312531,
      "lat": 23.7027638,
      "lon": 90.4244211,
      "tags": {
        "shop": "variety_store"
      }
    },
    {
      "type": "node",
      "id": 3532314995,
      "lat": 23.7013354,
      "lon": 90.4234112,
      "tags": {
        "shop": "kiosk"
      }
    },
    {
      "type": "node",
      "id": 3532314996,
      "lat": 23.7013354,
      "lon": 90.4234378,
      "tags": {
        "shop": "kiosk"
      }
    },
    {
      "type": "node",
      "id": 3532314997,
      "lat": 23.7013356,
      "lon": 90.4233854,
      "tags": {
        "shop": "kiosk"
      }
    },
    {
      "type": "node",
      "id": 3532321296,
      "lat": 23.7012771,
      "lon": 90.4246862,
      "tags": {
        "shop": "tailor"
      }
    },
    {
      "type": "node",
      "id": 3532321298,
      "lat": 23.7012794,
      "lon": 90.4246531,
      "tags": {
        "shop": "video"
      }
    },
    {
      "type": "node",
      "id": 3532321299,
      "lat": 23.7013221,
      "lon": 90.4252587,
      "tags": {
        "shop": "laundry"
      }
    },
    {
      "type": "node",
      "id": 3532321300,
      "lat": 23.7012878,
      "lon": 90.4248559,
      "tags": {
        "shop": "convenience"
      }
    },
    {
      "type": "node",
      "id": 3532321304,
      "lat": 23.701313,
      "lon": 90.4255003,
      "tags": {
        "shop": "convenience"
      }
    },
    {
      "type": "node",
      "id": 3532321306,
      "lat": 23.7013223,
      "lon": 90.4253855,
      "tags": {
        "shop": "electronics"
      }
    },
    {
      "type": "node",
      "id": 3532321313,
      "lat": 23.7013244,
      "lon": 90.4253374,
      "tags": {
        "shop": "convenience"
      }
    },
    {
      "type": "node",
      "id": 3532321315,
      "lat": 23.7013565,
      "lon": 90.4259458,
      "tags": {
        "shop": "video"
      }
    },
    {
      "type": "node",
      "id": 3532321316,
      "lat": 23.7013462,
      "lon": 90.4260025,
      "tags": {
        "shop": "hairdresser"
      }
    },
    {
      "type": "node",
      "id": 3532321318,
      "lat": 23.7013928,
      "lon": 90.424696,
      "tags": {
        "shop": "convenience"
      }
    },
    {
      "type": "node",
      "id": 3532321322,
      "lat": 23.7014254,
      "lon": 90.4247,
      "tags": {
        "shop": "electronics"
      }
    },
    {
      "type": "node",
      "id": 3532321323,
      "lat": 23.7014175,
      "lon": 90.4249427,
      "tags": {
        "shop": "convenience"
      }
    },
    {
      "type": "node",
      "id": 3532321327,
      "lat": 23.701419,
      "lon": 90.4249756,
      "tags": {
        "shop": "laundry"
      }
    },
    {
      "type": "node",
      "id": 3532321329,
      "lat": 23.7014235,
      "lon": 90.4260497,
      "tags": {
        "shop": "convenience"
      }
    },
    {
      "type": "node",
      "id": 3532321330,
      "lat": 23.701409,
      "lon": 90.4253521,
      "tags": {
        "shop": "electronics"
      }
    },
    {
      "type": "node",
      "id": 3532321331,
      "lat": 23.7014147,
      "lon": 90.4248795,
      "tags": {
        "shop": "tailor"
      }
    },
    {
      "type": "node",
      "id": 3532321333,
      "lat": 23.7014216,
      "lon": 90.4261057,
      "tags": {
        "shop": "tailor"
      }
    },
    {
      "type": "node",
      "id": 3532321335,
      "lat": 23.7014244,
      "lon": 90.42608,
      "tags": {
        "shop": "furniture"
      }
    },
    {
      "type": "node",
      "id": 3532321337,
      "lat": 23.7014736,
      "lon": 90.4246962,
      "tags": {
        "shop": "hairdresser"
      }
    },
    {
      "type": "node",
      "id": 3532321338,
      "lat": 23.7014299,
      "lon": 90.425882,
      "tags": {
        "shop": "electronics"
      }
    },
    {
      "type": "node",
      "id": 3532321339,
      "lat": 23.7014168,
      "lon": 90.4249088,
      "tags": {
        "shop": "hairdresser"
      }
    },
    {
      "type": "node",
      "id": 3532321341,
      "lat": 23.7014368,
      "lon": 90.4259656,
      "tags": {
        "shop": "electronics"
      }
    },
    {
      "type": "node",
      "id": 3532321344,
      "lat": 23.7014626,
      "lon": 90.4255973,
      "tags": {
        "shop": "convenience"
      }
    },
    {
      "type": "node",
      "id": 3532321345,
      "lat": 23.7015385,
      "lon": 90.4255985,
      "tags": {
        "shop": "beauty"
      }
    },
    {
      "type": "node",
      "id": 3532321346,
      "lat": 23.7015879,
      "lon": 90.4256012,
      "tags": {
        "shop": "convenience"
      }
    },
    {
      "type": "node",
      "id": 3532322513,
      "lat": 23.7013508,
      "lon": 90.4231996,
      "tags": {
        "shop": "kiosk"
      }
    },
    {
      "type": "node",
      "id": 3532322514,
      "lat": 23.7013508,
      "lon": 90.4232213,
      "tags": {
        "shop": "bakery"
      }
    },
    {
      "type": "node",
      "id": 3532322515,
      "lat": 23.7013525,
      "lon": 90.423254,
      "tags": {
        "shop": "variety_store"
      }
    },
    {
      "type": "node",
      "id": 3532325728,
      "lat": 23.7039726,
      "lon": 90.4219823,
      "tags": {
        "shop": "variety_store"
      }
    },
    {
      "type": "node",
      "id": 3532325729,
      "lat": 23.7039885,
      "lon": 90.4220065,
      "tags": {
        "shop": "variety_store"
      }
    },
    {
      "type": "node",
      "id": 3532325730,
      "lat": 23.7039992,
      "lon": 90.4220278,
      "tags": {
        "name": "Mohiuddin Tailors",
        "shop": "tailor"
      }
    },
    {
      "type": "node",
      "id": 3532325731,
      "lat": 23.7040107,
      "lon": 90.422054,
      "tags": {
        "name": "Bangladesh Hair Dresser Salon",
        "shop": "hairdresser"
      }
    },
    {
      "type": "node",
      "id": 3532329862,
      "lat": 23.7013639,
      "lon": 90.4238502,
      "tags": {
        "shop": "clothes"
      }
    },
    {
      "type": "node",
      "id": 3532329863,
      "lat": 23.7013806,
      "lon": 90.4238506,
      "tags": {
        "shop": "tea"
      }
    },
    {
      "type": "node",
      "id": 3532329864,
      "lat": 23.7013964,
      "lon": 90.4238505,
      "tags": {
        "shop": "bakery"
      }
    },
    {
      "type": "node",
      "id": 3532329865,
      "lat": 23.7014124,
      "lon": 90.4238487,
      "tags": {
        "shop": "butcher"
      }
    },
    {
      "type": "node",
      "id": 3532329868,
      "lat": 23.7014429,
      "lon": 90.4238485,
      "tags": {
        "shop": "clothes"
      }
    },
    {
      "type": "node",
      "id": 3532329869,
      "lat": 23.7014695,
      "lon": 90.4238472,
      "tags": {
        "shop": "bakery"
      }
    },
    {
      "type": "node",
      "id": 3532329870,
      "lat": 23.7014955,
      "lon": 90.4238483,
      "tags": {
        "shop": "electronics"
      }
    },
    {
      "type": "node",
      "id": 3532335530,
      "lat": 23.7022256,
      "lon": 90.4204195,
      "tags": {
        "shop": "optical"
      }
    },
    {
      "type": "node",
      "id": 3532335531,
      "lat": 23.7022739,
      "lon": 90.4204134,
      "tags": {
        "shop": "copyshop"
      }
    },
    {
      "type": "node",
      "id": 3532335532,
      "lat": 23.7023122,
      "lon": 90.4204118,
      "tags": {
        "shop": "mobile_recharge"
      }
    },
    {
      "type": "node",
      "id": 3532335535,
      "lat": 23.7024058,
      "lon": 90.420401,
      "tags": {
        "shop": "hairdresser"
      }
    },
    {
      "type": "node",
      "id": 3532341161,
      "lat": 23.7039079,
      "lon": 90.4220213,
      "tags": {
        "name": "Bikrompur Laundry House",
        "shop": "laundry"
      }
    },
    {
      "type": "node",
      "id": 3532341162,
      "lat": 23.7039176,
      "lon": 90.4220464,
      "tags": {
        "shop": "convenience"
      }
    },
    {
      "type": "node",
      "id": 3532341163,
      "lat": 23.7039415,
      "lon": 90.4220842,
      "tags": {
        "name": "Twin World",
        "shop": "gift"
      }
    },
    {
      "type": "node",
      "id": 3532341164,
      "lat": 23.7039548,
      "lon": 90.4221133,
      "tags": {
        "name": "Shuvo Tailors",
        "shop": "tailor"
      }
    },
    {
      "type": "node",
      "id": 3532341165,
      "lat": 23.7039602,
      "lon": 90.4221317,
      "tags": {
        "name": "Rejaul Electric House",
        "shop": "electronics"
      }
    },
    {
      "type": "node",
      "id": 3532343056,
      "lat": 23.7038502,
      "lon": 90.4220261,
      "tags": {
        "shop": "hairdresser"
      }
    },
    {
      "type": "node",
      "id": 3532343057,
      "lat": 23.7038866,
      "lon": 90.4220242,
      "tags": {
        "name": "Apon Fashion Tailors",
        "shop": "tailor"
      }
    },
    {
      "type": "node",
      "id": 3532355495,
      "lat": 23.7024935,
      "lon": 90.4238956,
      "tags": {
        "shop": "butcher"
      }
    },
    {
      "type": "node",
      "id": 3532357469,
      "lat": 23.7033974,
      "lon": 90.4221161,
      "tags": {
        "shop": "furniture"
      }
    },
    {
      "type": "node",
      "id": 3532357472,
      "lat": 23.7038963,
      "lon": 90.423831,
      "tags": {
        "shop": "tailor"
      }
    },
    {
      "type": "node",
      "id": 3532357474,
      "lat": 23.7039414,
      "lon": 90.4232575,
      "tags": {
        "shop": "furniture"
      }
    },
    {
      "type": "node",
      "id": 3532380548,
      "lat": 23.7013941,
      "lon": 90.4271662,
      "tags": {
        "name": "M Amin Tailor",
        "shop": "tailor"
      }
    },
    {
      "type": "node",
      "id": 3532380550,
      "lat": 23.7013958,
      "lon": 90.4271968,
      "tags": {
        "name": "Baitus Shifa Homeo & Unani",
        "shop": "chemist"
      }
    },
    {
      "type": "node",
      "id": 3532387755,
      "lat": 23.7022393,
      "lon": 90.4206541,
      "tags": {
        "shop": "tailor"
      }
    },
    {
      "type": "node",
      "id": 3532387756,
      "lat": 23.7022408,
      "lon": 90.4207084,
      "tags": {
        "shop": "tailor"
      }
    },
    {
      "type": "node",
      "id": 3532387757,
      "lat": 23.702245,
      "lon": 90.4208571,
      "tags": {
        "shop": "hairdresser"
      }
    },
    {
      "type": "node",
      "id": 3532387758,
      "lat": 23.7022479,
      "lon": 90.4208091,
      "tags": {
        "shop": "tailor"
      }
    },
    {
      "type": "node",
      "id": 3532411162,
      "lat": 23.702645,
      "lon": 90.4236168,
      "tags": {
        "shop": "electronics"
      }
    },
    {
      "type": "node",
      "id": 3532416770,
      "lat": 23.7022124,
      "lon": 90.4209827,
      "tags": {
        "shop": "tailor"
      }
    },
    {
      "type": "node",
      "id": 3532416771,
      "lat": 23.7022166,
      "lon": 90.4209548,
      "tags": {
        "shop": "hairdresser"
      }
    },
    {
      "type": "node",
      "id": 3532422744,
      "lat": 23.7012598,
      "lon": 90.4244281,
      "tags": {
        "shop": "bakery"
      }
    },
    {
      "type": "node",
      "id": 3532434830,
      "lat": 23.7046146,
      "lon": 90.4250013,
      "tags": {
        "shop": "furniture"
      }
    },
    {
      "type": "node",
      "id": 3532438716,
      "lat": 23.7029195,
      "lon": 90.423904,
      "tags": {
        "shop": "beauty"
      }
    },
    {
      "type": "node",
      "id": 3532440791,
      "lat": 23.7027819,
      "lon": 90.4233189,
      "tags": {
        "shop": "tailor"
      }
    },
    {
      "type": "node",
      "id": 3532447156,
      "lat": 23.7014007,
      "lon": 90.4273841,
      "tags": {
        "name": "Sayema Furniture",
        "shop": "furniture"
      }
    },
    {
      "type": "node",
      "id": 3532447157,
      "lat": 23.701404,
      "lon": 90.4274507,
      "tags": {
        "name": "Friend Refejaretor",
        "shop": "electronics"
      }
    },
    {
      "type": "node",
      "id": 3532447158,
      "lat": 23.7014056,
      "lon": 90.4274237,
      "tags": {
        "name": "Surer Murchona Vcd,Dvd Center",
        "shop": "electronics"
      }
    },
    {
      "type": "node",
      "id": 3532550481,
      "lat": 23.7014095,
      "lon": 90.4277201,
      "tags": {
        "name": "Alam super Shop",
        "shop": "yes"
      }
    },
    {
      "type": "node",
      "id": 3532554713,
      "lat": 23.7034565,
      "lon": 90.4203294,
      "tags": {
        "name": "Aftab store",
        "shop": "general"
      }
    },
    {
      "type": "node",
      "id": 3532554715,
      "lat": 23.7034836,
      "lon": 90.4203166,
      "tags": {
        "name": "Habib store",
        "shop": "variety_store"
      }
    },
    {
      "type": "node",
      "id": 3532554716,
      "lat": 23.7035239,
      "lon": 90.4203745,
      "tags": {
        "name": "Romjan automatic dry cleaners",
        "shop": "laundry"
      }
    },
    {
      "type": "node",
      "id": 3532554717,
      "lat": 23.7035353,
      "lon": 90.4203734,
      "tags": {
        "name": "Mim Alif enterprise",
        "shop": "department_store"
      }
    },
    {
      "type": "node",
      "id": 3532554718,
      "lat": 23.7035467,
      "lon": 90.4203717,
      "tags": {
        "name": "Forhad confectionary & fast food",
        "shop": "bakery"
      }
    },
    {
      "type": "node",
      "id": 3532554719,
      "lat": 23.7035684,
      "lon": 90.4203513,
      "tags": {
        "name": "Chadni general store",
        "shop": "general"
      }
    },
    {
      "type": "node",
      "id": 3532554720,
      "lat": 23.7035736,
      "lon": 90.4203474,
      "tags": {
        "name": "Rajesh Electronics",
        "shop": "electronics"
      }
    },
    {
      "type": "node",
      "id": 3532556859,
      "lat": 23.7014099,
      "lon": 90.4277712,
      "tags": {
        "name": "Ettade Cosmatic",
        "shop": "beauty"
      }
    },
    {
      "type": "node",
      "id": 3532571967,
      "lat": 23.7071878,
      "lon": 90.4219253,
      "tags": {
        "shop": "convenience"
      }
    },
    {
      "type": "node",
      "id": 3532571968,
      "lat": 23.7072213,
      "lon": 90.4219221,
      "tags": {
        "shop": "convenience"
      }
    },
    {
      "type": "node",
      "id": 3532571969,
      "lat": 23.7072533,
      "lon": 90.4219189,
      "tags": {
        "shop": "convenience"
      }
    },
    {
      "type": "node",
      "id": 3532571970,
      "lat": 23.7072883,
      "lon": 90.4219237,
      "tags": {
        "shop": "convenience"
      }
    },
    {
      "type": "node",
      "id": 3532571971,
      "lat": 23.7073218,
      "lon": 90.4219205,
      "tags": {
        "shop": "convenience"
      }
    },
    {
      "type": "node",
      "id": 3532571972,
      "lat": 23.7073539,
      "lon": 90.4219189,
      "tags": {
        "shop": "butcher"
      }
    },
    {
      "type": "node",
      "id": 3532571973,
      "lat": 23.7073757,
      "lon": 90.4219173,
      "tags": {
        "shop": "hairdresser"
      }
    },
    {
      "type": "node",
      "id": 3532608713,
      "lat": 23.7014856,
      "lon": 90.4278468,
      "tags": {
        "name": "Rekha Homeo Hall",
        "shop": "chemist"
      }
    },
    {
      "type": "node",
      "id": 3532608716,
      "lat": 23.7014859,
      "lon": 90.4279215,
      "tags": {
        "name": "Mintu Electronic",
        "shop": "electronics"
      }
    },
    {
      "type": "node",
      "id": 3532643885,
      "lat": 23.7014357,
      "lon": 90.4269149,
      "tags": {
        "shop": "jewelry"
      }
    },
    {
      "type": "node",
      "id": 3532643886,
      "lat": 23.701437,
      "lon": 90.4269467,
      "tags": {
        "name": "Ujjal gift shop",
        "shop": "gift"
      }
    },
    {
      "type": "node",
      "id": 3532663338,
      "lat": 23.7051347,
      "lon": 90.4205471,
      "tags": {
        "name": "Eusouf Lace",
        "shop": "fabric"
      }
    },
    {
      "type": "node",
      "id": 3532663340,
      "lat": 23.7051636,
      "lon": 90.4205529,
      "tags": {
        "name": "Pick n' Pay Video Shop",
        "shop": "video"
      }
    },
    {
      "type": "node",
      "id": 3532663341,
      "lat": 23.7051967,
      "lon": 90.4205622,
      "tags": {
        "name": "Womens' Beauty Parlour",
        "shop": "beauty"
      }
    },
    {
      "type": "node",
      "id": 3532672438,
      "lat": 23.7037974,
      "lon": 90.4204421,
      "tags": {
        "shop": "convenience"
      }
    },
    {
      "type": "node",
      "id": 3532677620,
      "lat": 23.7014376,
      "lon": 90.4268791,
      "tags": {
        "name": "Nolok cloth store",
        "shop": "clothes"
      }
    },
    {
      "type": "node",
      "id": 3532690401,
      "lat": 23.7069284,
      "lon": 90.4211733,
      "tags": {
        "shop": "tailor"
      }
    },
    {
      "type": "node",
      "id": 3532690402,
      "lat": 23.7069495,
      "lon": 90.421182,
      "tags": {
        "shop": "hairdresser"
      }
    },
    {
      "type": "node",
      "id": 3532690403,
      "lat": 23.7069684,
      "lon": 90.4211932,
      "tags": {
        "shop": "laundry"
      }
    },
    {
      "type": "node",
      "id": 3532690404,
      "lat": 23.7069888,
      "lon": 90.4212019,
      "tags": {
        "shop": "tailor"
      }
    },
    {
      "type": "node",
      "id": 3532692926,
      "lat": 23.7038326,
      "lon": 90.4203085,
      "tags": {
        "name": "Saidur Rahman General Store",
        "shop": "general"
      }
    },
    {
      "type": "node",
      "id": 3532712286,
      "lat": 23.7039283,
      "lon": 90.4203403,
      "tags": {
        "shop": "variety_store"
      }
    },
    {
      "type": "node",
      "id": 3532737657,
      "lat": 23.704001,
      "lon": 90.4203803,
      "tags": {
        "name": "Mayer Doya Store",
        "shop": "variety_store"
      }
    },
    {
      "type": "node",
      "id": 3532737658,
      "lat": 23.7040616,
      "lon": 90.4204087,
      "tags": {
        "name": "Nokshi Tailors",
        "shop": "tailor"
      }
    },
    {
      "type": "node",
      "id": 3532737659,
      "lat": 23.7040045,
      "lon": 90.4203942,
      "tags": {
        "shop": "variety_store"
      }
    },
    {
      "type": "node",
      "id": 3538595319,
      "lat": 23.6908004,
      "lon": 90.4433397,
      "tags": {
        "name": "Haque Bakery & Sweets",
        "shop": "bakery"
      }
    },
    {
      "type": "node",
      "id": 3538605206,
      "lat": 23.6908596,
      "lon": 90.4425719,
      "tags": {
        "name": "Family MArt",
        "shop": "supermarket"
      }
    },
    {
      "type": "node",
      "id": 3551060288,
      "lat": 23.7013224,
      "lon": 90.4223119,
      "tags": {
        "shop": "variety_store"
      }
    },
    {
      "type": "node",
      "id": 3551060290,
      "lat": 23.7013218,
      "lon": 90.4224245,
      "tags": {
        "shop": "furniture"
      }
    },
    {
      "type": "node",
      "id": 3551060291,
      "lat": 23.7013206,
      "lon": 90.422336,
      "tags": {
        "shop": "clothes"
      }
    },
    {
      "type": "node",
      "id": 3551060292,
      "lat": 23.7013218,
      "lon": 90.4223608,
      "tags": {
        "shop": "tailor"
      }
    },
    {
      "type": "node",
      "id": 3551060493,
      "lat": 23.7013218,
      "lon": 90.4223957,
      "tags": {
        "shop": "medical_supply"
      }
    },
    {
      "type": "node",
      "id": 3551060495,
      "lat": 23.7033568,
      "lon": 90.423323,
      "tags": {
        "shop": "convenience"
      }
    },
    {
      "type": "node",
      "id": 3554885797,
      "lat": 23.7012625,
      "lon": 90.4244712,
      "tags": {
        "shop": "electronics"
      }
    },
    {
      "type": "node",
      "id": 3554885798,
      "lat": 23.7012762,
      "lon": 90.4242347,
      "tags": {
        "shop": "variety_store"
      }
    },
    {
      "type": "node",
      "id": 3554885799,
      "lat": 23.7013236,
      "lon": 90.4257697,
      "tags": {
        "shop": "electronics"
      }
    },
    {
      "type": "node",
      "id": 3554885800,
      "lat": 23.7013368,
      "lon": 90.4258428,
      "tags": {
        "shop": "hairdresser"
      }
    },
    {
      "type": "node",
      "id": 3554885801,
      "lat": 23.7013375,
      "lon": 90.4260935,
      "tags": {
        "shop": "tailor"
      }
    },
    {
      "type": "node",
      "id": 3554885802,
      "lat": 23.701338,
      "lon": 90.4258651,
      "tags": {
        "shop": "electronics"
      }
    },
    {
      "type": "node",
      "id": 3554885803,
      "lat": 23.7013386,
      "lon": 90.4258878,
      "tags": {
        "shop": "tailor"
      }
    },
    {
      "type": "node",
      "id": 3554885810,
      "lat": 23.7038574,
      "lon": 90.4238321,
      "tags": {
        "shop": "laundry"
      }
    },
    {
      "type": "node",
      "id": 3554885811,
      "lat": 23.7038754,
      "lon": 90.4238325,
      "tags": {
        "shop": "frize repair"
      }
    },
    {
      "type": "node",
      "id": 3554885812,
      "lat": 23.7039338,
      "lon": 90.4238313,
      "tags": {
        "shop": "trade"
      }
    },
    {
      "type": "node",
      "id": 3554885815,
      "lat": 23.7040721,
      "lon": 90.4234053,
      "tags": {
        "shop": "clothes"
      }
    },
    {
      "type": "node",
      "id": 3554885816,
      "lat": 23.7040725,
      "lon": 90.4233689,
      "tags": {
        "shop": "convenience"
      }
    },
    {
      "type": "node",
      "id": 3554885817,
      "lat": 23.7040733,
      "lon": 90.4234425,
      "tags": {
        "shop": "laundry"
      }
    },
    {
      "type": "node",
      "id": 3554885844,
      "lat": 23.7063793,
      "lon": 90.4241192,
      "tags": {
        "shop": "clothes"
      }
    },
    {
      "type": "node",
      "id": 3554885846,
      "lat": 23.706381,
      "lon": 90.424144,
      "tags": {
        "shop": "electronics"
      }
    },